{"features":
    [
        {"type":"Feature","geometry":{"type":"Point","coordinates":[145.259,-37.8433]},"properties":{"labor_percent":null,"state":"VIC","liberal_percent":43.89,"the_greens_vic_percent":11.47,"polling_place_name":"Bayswater","division_name":"Aston","division_id":"197","polling_place_id":"2942"},"id":"aec_federal_election_first_preference_by_polling_place_2019.2942"},
        {"type":"Feature","geometry":{"type":"Point","coordinates":[145.252,-37.8489]},"properties":{"labor_percent":null,"state":"VIC","liberal_percent":48.64,"the_greens_vic_percent":9.7,"polling_place_name":"Bayswater West","division_name":"Aston","division_id":"197","polling_place_id":"2945"},"id":"aec_federal_election_first_preference_by_polling_place_2019.2945"},
        {"type":"Feature","geometry":{"type":"Point","coordinates":[145.289,-37.8955]},"properties":{"labor_percent":null,"state":"VIC","liberal_percent":49.45,"the_greens_vic_percent":7.62,"polling_place_name":"Blackwood Park","division_name":"Aston","division_id":"197","polling_place_id":"2947"},"id":"aec_federal_election_first_preference_by_polling_place_2019.2947"},
        {"type":"Feature","geometry":{"type":"Point","coordinates":[145.275,-37.8617]},"properties":{"labor_percent":null,"state":"VIC","liberal_percent":44.79,"the_greens_vic_percent":11.97,"polling_place_name":"Boronia","division_name":"Aston","division_id":"197","polling_place_id":"2948"},"id":"aec_federal_election_first_preference_by_polling_place_2019.2948"},
        {"type":"Feature","geometry":{"type":"Point","coordinates":[145.2096355,-37.8368778]},"properties":{"labor_percent":null,"state":"VIC","liberal_percent":49.62,"the_greens_vic_percent":6.51,"polling_place_name":"Eastmont","division_name":"Deakin","division_id":"209","polling_place_id":"2949"},"id":"aec_federal_election_first_preference_by_polling_place_2019.2949"},
        {"type":"Feature","geometry":{"type":"Point","coordinates":[145.265,-37.8699]},"properties":{"labor_percent":null,"state":"VIC","liberal_percent":45.28,"the_greens_vic_percent":12.14,"polling_place_name":"Fairhills","division_name":"Aston","division_id":"197","polling_place_id":"2950"},"id":"aec_federal_election_first_preference_by_polling_place_2019.2950"},
        {"type":"Feature","geometry":{"type":"Point","coordinates":[145.278,-37.8762]},"properties":{"labor_percent":null,"state":"VIC","liberal_percent":47.62,"the_greens_vic_percent":11.79,"polling_place_name":"Ferntree Gully West","division_name":"Aston","division_id":"197","polling_place_id":"2951"},"id":"aec_federal_election_first_preference_by_polling_place_2019.2951"},
        {"type":"Feature","geometry":{"type":"Point","coordinates":[145.2190303,-37.8644694]},"properties":{"labor_percent":null,"state":"VIC","liberal_percent":57.53,"the_greens_vic_percent":8.75,"polling_place_name":"Wantirna West","division_name":"Aston","division_id":"197","polling_place_id":"2952"},"id":"aec_federal_election_first_preference_by_polling_place_2019.2952"},
        {"type":"Feature","geometry":{"type":"Point","coordinates":[145.247,-37.8266]},"properties":{"labor_percent":null,"state":"VIC","liberal_percent":40.58,"the_greens_vic_percent":11.39,"polling_place_name":"Heathmont","division_name":"Deakin","division_id":"209","polling_place_id":"2953"},"id":"aec_federal_election_first_preference_by_polling_place_2019.2953"},
        {"type":"Feature","geometry":{"type":"Point","coordinates":[145.257,-37.8305]},"properties":{"labor_percent":null,"state":"VIC","liberal_percent":45.8,"the_greens_vic_percent":11.3,"polling_place_name":"Heathmont East","division_name":"Deakin","division_id":"209","polling_place_id":"2954"},"id":"aec_federal_election_first_preference_by_polling_place_2019.2954"},
        {"type":"Feature","geometry":{"type":"Point","coordinates":[145.247,-37.892]},"properties":{"labor_percent":null,"state":"VIC","liberal_percent":53.11,"the_greens_vic_percent":7.72,"polling_place_name":"Knoxfield","division_name":"Aston","division_id":"197","polling_place_id":"2956"},"id":"aec_federal_election_first_preference_by_polling_place_2019.2956"},
        {"type":"Feature","geometry":{"type":"Point","coordinates":[145.263,-37.883]},"properties":{"labor_percent":null,"state":"VIC","liberal_percent":52.01,"the_greens_vic_percent":8.18,"polling_place_name":"Kent Park","division_name":"Aston","division_id":"197","polling_place_id":"2957"},"id":"aec_federal_election_first_preference_by_polling_place_2019.2957"},
        {"type":"Feature","geometry":{"type":"Point","coordinates":[145.229,-37.8827]},"properties":{"labor_percent":null,"state":"VIC","liberal_percent":57.95,"the_greens_vic_percent":6.93,"polling_place_name":"Knox Gardens","division_name":"Aston","division_id":"197","polling_place_id":"2958"},"id":"aec_federal_election_first_preference_by_polling_place_2019.2958"
        {"type":"Feature","geometry":{"type":"Point","coordinates":[145.276,-37.9123]},"properties":{"labor_percent":null,"state":"VIC","liberal_percent":64.11,"the_greens_vic_percent":7.1,"polling_place_name":"Lysterfield","division_name":"Aston","division_id":"197","polling_place_id":"2959"},"id":"aec_federal_election_first_preference_by_polling_place_2019.2959"},
        {"type":"Feature","geometry":{"type":"Point","coordinates":[145.2,-37.8433]},"properties":{"labor_percent":null,"state":"VIC","liberal_percent":47.27,"the_greens_vic_percent":7.58,"polling_place_name":"Morack","division_name":"Deakin","division_id":"209","polling_place_id":"2960"},"id":"aec_federal_election_first_preference_by_polling_place_2019.2960"},{"type":"Feature","geometry":{"type":"Point","coordinates":[145.27,-37.886]},"properties":{"labor_percent":null,"state":"VIC","liberal_percent":51.13,"the_greens_vic_percent":9.07,"polling_place_name":"Mountain Gate","division_name":"Aston","division_id":"197","polling_place_id":"2961"},"id":"aec_federal_election_first_preference_by_polling_place_2019.2961"},{"type":"Feature","geometry":{"type":"Point","coordinates":[145.238,-37.8252]},"properties":{"labor_percent":null,"state":"VIC","liberal_percent":41.76,"the_greens_vic_percent":11.49,"polling_place_name":"Ringwood South","division_name":"Deakin","division_id":"209","polling_place_id":"2962"},"id":"aec_federal_election_first_preference_by_polling_place_2019.2962"},{"type":"Feature","geometry":{"type":"Point","coordinates":[145.238,-37.9254]},"properties":{"labor_percent":null,"state":"VIC","liberal_percent":53.93,"the_greens_vic_percent":7.48,"polling_place_name":"Rowville","division_name":"Aston","division_id":"197","polling_place_id":"2963"},"id":"aec_federal_election_first_preference_by_polling_place_2019.2963"},{"type":"Feature","geometry":{"type":"Point","coordinates":[145.254,-37.9194]},"properties":{"labor_percent":null,"state":"VIC","liberal_percent":57.08,"the_greens_vic_percent":7.88,"polling_place_name":"Rowville East","division_name":"Aston","division_id":"197","polling_place_id":"2964"},"id":"aec_federal_election_first_preference_by_polling_place_2019.2964"},{"type":"Feature","geometry":{"type":"Point","coordinates":[145.2267134,-37.8892966]},"properties":{"labor_percent":null,"state":"VIC","liberal_percent":53.29,"the_greens_vic_percent":7.56,"polling_place_name":"Scoresby","division_name":"Aston","division_id":"197","polling_place_id":"2965"},"id":"aec_federal_election_first_preference_by_polling_place_2019.2965"},{"type":"Feature","geometry":{"type":"Point","coordinates":[145.252,-37.8833]},"properties":{"labor_percent":null,"state":"VIC","liberal_percent":53.15,"the_greens_vic_percent":10.18,"polling_place_name":"Watersedge","division_name":"Aston","division_id":"197","polling_place_id":"2966"},"id":"aec_federal_election_first_preference_by_polling_place_2019.2966"},{"type":"Feature","geometry":{"type":"Point","coordinates":[145.256,-37.8615]},"properties":{"labor_percent":null,"state":"VIC","liberal_percent":50.55,"the_greens_vic_percent":7.68,"polling_place_name":"Studfield East","division_name":"Aston","division_id":"197","polling_place_id":"2969"},"id":"aec_federal_election_first_preference_by_polling_place_2019.2969"},{"type":"Feature","geometry":{"type":"Point","coordinates":[145.232,-37.8609]},"properties":{"labor_percent":null,"state":"VIC","liberal_percent":51.61,"the_greens_vic_percent":6.82,"polling_place_name":"Templeton","division_name":"Aston","division_id":"197","polling_place_id":"2970"},"id":"aec_federal_election_first_preference_by_polling_place_2019.2970"},{"type":"Feature","geometry":{"type":"Point","coordinates":[145.216,-37.8563]},"properties":{"labor_percent":null,"state":"VIC","liberal_percent":55.32,"the_greens_vic_percent":9.22,"polling_place_name":"Wantirna","division_name":"Aston","division_id":"197","polling_place_id":"2971"},"id":"aec_federal_election_first_preference_by_polling_place_2019.2971"},{"type":"Feature","geometry":{"type":"Point","coordinates":[145.231,-37.8574]},"properties":{"labor_percent":null,"state":"VIC","liberal_percent":56.93,"the_greens_vic_percent":8.41,"polling_place_name":"Wantirna Central","division_name":"Aston","division_id":"197","polling_place_id":"2973"},"id":"aec_federal_election_first_preference_by_polling_place_2019.2973"},{"type":"Feature","geometry":{"type":"Point","coordinates":[145.2371674,-37.8718812]},"properties":{"labor_percent":null,"state":"VIC","liberal_percent":54.03,"the_greens_vic_percent":8.76,"polling_place_name":"Wantirna South","division_name":"Aston","division_id":"197","polling_place_id":"2974"},"id":"aec_federal_election_first_preference_by_polling_place_2019.2974"},{"type":"Feature","geometry":{"type":"Point","coordinates":[145.032,-37.7836]},"properties":{"labor_percent":null,"state":"VIC","liberal_percent":17.93,"the_greens_vic_percent":25.66,"polling_place_name":"Alphington","division_name":"Cooper","division_id":"320","polling_place_id":"3085"},"id":"aec_federal_election_first_preference_by_polling_place_2019.3085"},{"type":"Feature","geometry":{"type":"Point","coordinates":[145.0243688,-37.7721265]},"properties":{"labor_percent":null,"state":"VIC","liberal_percent":18.81,"the_greens_vic_percent":22.16,"polling_place_name":"Alphington North","division_name":"Cooper","division_id":"320","polling_place_id":"3086"},"id":"aec_federal_election_first_preference_by_polling_place_2019.3086"},{"type":"Feature","geometry":{"type":"Point","coordinates":[145.022,-37.7207]},"properties":{"labor_percent":null,"state":"VIC","liberal_percent":20.92,"the_greens_vic_percent":14.37,"polling_place_name":"Boldrewood","division_name":"Cooper","division_id":"320","polling_place_id":"3087"},"id":"aec_federal_election_first_preference_by_polling_place_2019.3087"},{"type":"Feature","geometry":{"type":"Point","coordinates":[145.03,-37.6996]},"properties":{"labor_percent":null,"state":"VIC","liberal_percent":20.87,"the_greens_vic_percent":10.5,"polling_place_name":"Burbank","division_name":"Cooper","division_id":"320","polling_place_id":"3088"},"id":"aec_federal_election_first_preference_by_polling_place_2019.3088"},{"type":"Feature","geometry":{"type":"Point","coordinates":[145.021,-37.7783]},"properties":{"labor_percent":null,"state":"VIC","liberal_percent":16.18,"the_greens_vic_percent":26.21,"polling_place_name":"Fairfield","division_name":"Cooper","division_id":"320","polling_place_id":"3091"},"id":"aec_federal_election_first_preference_by_polling_place_2019.3091"},{"type":"Feature","geometry":{"type":"Point","coordinates":[145.003,-37.6964]},"properties":{"labor_percent":null,"state":"VIC","liberal_percent":22.88,"the_greens_vic_percent":7.86,"polling_place_name":"Merrilands","division_name":"Cooper","division_id":"320","polling_place_id":"3095"},"id":"aec_federal_election_first_preference_by_polling_place_2019.3095"},{"type":"Feature","geometry":{"type":"Point","coordinates":[144.9966839,-37.7750662]},"properties":{"labor_percent":null,"state":"VIC","liberal_percent":10.06,"the_greens_vic_percent":32.87,"polling_place_name":"Northcote","division_name":"Cooper","division_id":"320","polling_place_id":"3096"},"id":"aec_federal_election_first_preference_by_polling_place_2019.3096"},{"type":"Feature","geometry":{"type":"Point","coordinates":[144.9999907,-37.7636702]},"properties":{"labor_percent":null,"state":"VIC","liberal_percent":13.88,"the_greens_vic_percent":32.57,"polling_place_name":"Northcote North","division_name":"Cooper","division_id":"320","polling_place_id":"3097"},"id":"aec_federal_election_first_preference_by_polling_place_2019.3097"},{"type":"Feature","geometry":{"type":"Point","coordinates":[145.007,-37.7773]},"properties":{"labor_percent":null,"state":"VIC","liberal_percent":10.79,"the_greens_vic_percent":28.22,"polling_place_name":"Northcote South","division_name":"Cooper","division_id":"320","polling_place_id":"3098"},"id":"aec_federal_election_first_preference_by_polling_place_2019.3098"},{"type":"Feature","geometry":{"type":"Point","coordinates":[144.989,-37.7742]},"properties":{"labor_percent":null,"state":"VIC","liberal_percent":6.25,"the_greens_vic_percent":36.55,"polling_place_name":"Northcote West","division_name":"Cooper","division_id":"320","polling_place_id":"3099"},"id":"aec_federal_election_first_preference_by_polling_place_2019.3099"},{"type":"Feature","geometry":{"type":"Point","coordinates":[145.004,-37.7448]},"properties":{"labor_percent":null,"state":"VIC","liberal_percent":22.22,"the_greens_vic_percent":14.29,"polling_place_name":"Preston","division_name":"Cooper","division_id":"320","polling_place_id":"3101"},"id":"aec_federal_election_first_preference_by_polling_place_2019.3101"},{"type":"Feature","geometry":{"type":"Point","coordinates":[145.018,-37.7378]},"properties":{"labor_percent":null,"state":"VIC","liberal_percent":19.58,"the_greens_vic_percent":16.26,"polling_place_name":"Preston East","division_name":"Cooper","division_id":"320","polling_place_id":"3102"},"id":"aec_federal_election_first_preference_by_polling_place_2019.3102"},{"type":"Feature","geometry":{"type":"Point","coordinates":[145.03,-37.7329]},"properties":{"labor_percent":null,"state":"VIC","liberal_percent":13.26,"the_greens_vic_percent":14.61,"polling_place_name":"Preston North East","division_name":"Cooper","division_id":"320","polling_place_id":"3104"},"id":"aec_federal_election_first_preference_by_polling_place_2019.3104"},{"type":"Feature","geometry":{"type":"Point","coordinates":[145.0075311,-37.7479224]},"properties":{"labor_percent":null,"state":"VIC","liberal_percent":12.72,"the_greens_vic_percent":24.67,"polling_place_name":"Preston South","division_name":"Cooper","division_id":"320","polling_place_id":"3105"},"id":"aec_federal_election_first_preference_by_polling_place_2019.3105"},{"type":"Feature","geometry":{"type":"Point","coordinates":[145.01,-37.7306]},"properties":{"labor_percent":null,"state":"VIC","liberal_percent":19.96,"the_greens_vic_percent":16.95,"polling_place_name":"Regent","division_name":"Cooper","division_id":"320","polling_place_id":"3107"},"id":"aec_federal_election_first_preference_by_polling_place_2019.3107"},{"type":"Feature","geometry":{"type":"Point","coordinates":[145.007,-37.7115]},"properties":{"labor_percent":null,"state":"VIC","liberal_percent":16.33,"the_greens_vic_percent":16.07,"polling_place_name":"Reservoir","division_name":"Cooper","division_id":"320","polling_place_id":"3108"},"id":"aec_federal_election_first_preference_by_polling_place_2019.3108"},{"type":"Feature","geometry":{"type":"Point","coordinates":[145.004249,-37.71834]},"properties":{"labor_percent":null,"state":"VIC","liberal_percent":21.48,"the_greens_vic_percent":13.53,"polling_place_name":"Reservoir Central","division_name":"Cooper","division_id":"320","polling_place_id":"3109"},"id":"aec_federal_election_first_preference_by_polling_place_2019.3109"},{"type":"Feature","geometry":{"type":"Point","coordinates":[145.018,-37.7294]},"properties":{"labor_percent":null,"state":"VIC","liberal_percent":27.24,"the_greens_vic_percent":12.39,"polling_place_name":"Reservoir East","division_name":"Cooper","division_id":"320","polling_place_id":"3110"},"id":"aec_federal_election_first_preference_by_polling_place_2019.3110"},{"type":"Feature","geometry":{"type":"Point","coordinates":[145.021,-37.7059]},"properties":{"labor_percent":null,"state":"VIC","liberal_percent":19.29,"the_greens_vic_percent":13.65,"polling_place_name":"Reservoir North","division_name":"Cooper","division_id":"320","polling_place_id":"3111"},"id":"aec_federal_election_first_preference_by_polling_place_2019.3111"},{"type":"Feature","geometry":{"type":"Point","coordinates":[145.019,-37.7157]},"properties":{"labor_percent":null,"state":"VIC","liberal_percent":15.83,"the_greens_vic_percent":15.46,"polling_place_name":"Reservoir North East","division_name":"Cooper","division_id":"320","polling_place_id":"3112"},"id":"aec_federal_election_first_preference_by_polling_place_2019.3112"},{"type":"Feature","geometry":{"type":"Point","coordinates":[144.9934558,-37.7266904]},"properties":{"labor_percent":null,"state":"VIC","liberal_percent":23.38,"the_greens_vic_percent":12.97,"polling_place_name":"Reservoir South","division_name":"Cooper","division_id":"320","polling_place_id":"3113"},"id":"aec_federal_election_first_preference_by_polling_place_2019.3113"},{"type":"Feature","geometry":{"type":"Point","coordinates":[144.9925806,-37.7016646]},"properties":{"labor_percent":null,"state":"VIC","liberal_percent":30.13,"the_greens_vic_percent":6.38,"polling_place_name":"Ruthven","division_name":"Cooper","division_id":"320","polling_place_id":"3115"},"id":"aec_federal_election_first_preference_by_polling_place_2019.3115"},{"type":"Feature","geometry":{"type":"Point","coordinates":[145.015,-37.7546]},"properties":{"labor_percent":null,"state":"VIC","liberal_percent":19.1,"the_greens_vic_percent":22.06,"polling_place_name":"Thornbury East","division_name":"Cooper","division_id":"320","polling_place_id":"3117"},"id":"aec_federal_election_first_preference_by_polling_place_2019.3117"},{"type":"Feature","geometry":{"type":"Point","coordinates":[145.009,-37.762]},"properties":{"labor_percent":null,"state":"VIC","liberal_percent":15.5,"the_greens_vic_percent":25.19,"polling_place_name":"Thornbury South","division_name":"Cooper","division_id":"320","polling_place_id":"3118"},"id":"aec_federal_election_first_preference_by_polling_place_2019.3118"},{"type":"Feature","geometry":{"type":"Point","coordinates":[144.9965874,-37.7836619]},"properties":{"labor_percent":null,"state":"VIC","liberal_percent":11.35,"the_greens_vic_percent":31.91,"polling_place_name":"Westgarth","division_name":"Cooper","division_id":"320","polling_place_id":"3119"},"id":"aec_federal_election_first_preference_by_polling_place_2019.3119"},{"type":"Feature","geometry":{"type":"Point","coordinates":[145.173,-37.9131]},"properties":{"labor_percent":null,"state":"VIC","liberal_percent":42.1,"the_greens_vic_percent":7.31,"polling_place_name":"Brandon Park","division_name":"Hotham","division_id":"217","polling_place_id":"3220"},"id":"aec_federal_election_first_preference_by_polling_place_2019.3220"},{"type":"Feature","geometry":{"type":"Point","coordinates":[145.168,-37.8972]},"properties":{"labor_percent":null,"state":"VIC","liberal_percent":47.39,"the_greens_vic_percent":7.57,"polling_place_name":"Brentwood (Hotham)","division_name":"Hotham","division_id":"217","polling_place_id":"3221"},"id":"aec_federal_election_first_preference_by_polling_place_2019.3221"},{"type":"Feature","geometry":{"type":"Point","coordinates":[145.169118,-37.934521]},"properties":{"labor_percent":null,"state":"VIC","liberal_percent":39.02,"the_greens_vic_percent":6.97,"polling_place_name":"Wellington (Hotham)","division_name":"Hotham","division_id":"217","polling_place_id":"3222"},"id":"aec_federal_election_first_preference_by_polling_place_2019.3222"},{"type":"Feature","geometry":{"type":"Point","coordinates":[145.123558,-37.9181038]},"properties":{"labor_percent":null,"state":"VIC","liberal_percent":28.29,"the_greens_vic_percent":16.47,"polling_place_name":"Clayton","division_name":"Hotham","division_id":"217","polling_place_id":"3223"},"id":"aec_federal_election_first_preference_by_polling_place_2019.3223"},{"type":"Feature","geometry":{"type":"Point","coordinates":[145.125,-37.9121]},"properties":{"labor_percent":null,"state":"VIC","liberal_percent":28.55,"the_greens_vic_percent":16.05,"polling_place_name":"Clayton North","division_name":"Hotham","division_id":"217","polling_place_id":"3225"},"id":"aec_federal_election_first_preference_by_polling_place_2019.3225"},{"type":"Feature","geometry":{"type":"Point","coordinates":[145.197,-37.9326]},"properties":{"labor_percent":null,"state":"VIC","liberal_percent":43.64,"the_greens_vic_percent":6.19,"polling_place_name":"Gladeswood","division_name":"Hotham","division_id":"217","polling_place_id":"3227"},"id":"aec_federal_election_first_preference_by_polling_place_2019.3227"},{"type":"Feature","geometry":{"type":"Point","coordinates":[145.162,-37.8779]},"properties":{"labor_percent":null,"state":"VIC","liberal_percent":41.36,"the_greens_vic_percent":8.34,"polling_place_name":"The Glen","division_name":"Chisholm","division_id":"205","polling_place_id":"3228"},"id":"aec_federal_election_first_preference_by_polling_place_2019.3228"},{"type":"Feature","geometry":{"type":"Point","coordinates":[145.169,-37.8754]},"properties":{"labor_percent":null,"state":"VIC","liberal_percent":47.78,"the_greens_vic_percent":8.4,"polling_place_name":"Glen Waverley Heights","division_name":"Chisholm","division_id":"205","polling_place_id":"3230"},"id":"aec_federal_election_first_preference_by_polling_place_2019.3230"},{"type":"Feature","geometry":{"type":"Point","coordinates":[145.193,-37.9027]},"properties":{"labor_percent":null,"state":"VIC","liberal_percent":57.84,"the_greens_vic_percent":6.53,"polling_place_name":"Jells Park","division_name":"Hotham","division_id":"217","polling_place_id":"3233"},"id":"aec_federal_election_first_preference_by_polling_place_2019.3233"},{"type":"Feature","geometry":{"type":"Point","coordinates":[145.178,-37.8841]},"properties":{"labor_percent":null,"state":"VIC","liberal_percent":50.54,"the_greens_vic_percent":8.21,"polling_place_name":"Mount View","division_name":"Chisholm","division_id":"205","polling_place_id":"3235"},"id":"aec_federal_election_first_preference_by_polling_place_2019.3235"},{"type":"Feature","geometry":{"type":"Point","coordinates":[145.166,-37.9226]},"properties":{"labor_percent":null,"state":"VIC","liberal_percent":33.93,"the_greens_vic_percent":7.5,"polling_place_name":"Mulgrave","division_name":"Hotham","division_id":"217","polling_place_id":"3237"},"id":"aec_federal_election_first_preference_by_polling_place_2019.3237"},{"type":"Feature","geometry":{"type":"Point","coordinates":[145.173,-37.9285]},"properties":{"labor_percent":null,"state":"VIC","liberal_percent":35.94,"the_greens_vic_percent":6.41,"polling_place_name":"Albany Rise","division_name":"Hotham","division_id":"217","polling_place_id":"3238"},"id":"aec_federal_election_first_preference_by_polling_place_2019.3238"},{"type":"Feature","geometry":{"type":"Point","coordinates":[145.1054002,-37.8968508]},"properties":{"labor_percent":null,"state":"VIC","liberal_percent":34.48,"the_greens_vic_percent":12.47,"polling_place_name":"Oakleigh East","division_name":"Hotham","division_id":"217","polling_place_id":"3239"},"id":"aec_federal_election_first_preference_by_polling_place_2019.3239"},{"type":"Feature","geometry":{"type":"Point","coordinates":[145.11,-37.8885]},"properties":{"labor_percent":null,"state":"VIC","liberal_percent":38.66,"the_greens_vic_percent":10.49,"polling_place_name":"Sussex Heights","division_name":"Hotham","division_id":"217","polling_place_id":"3241"},"id":"aec_federal_election_first_preference_by_polling_place_2019.3241"},{"type":"Feature","geometry":{"type":"Point","coordinates":[145.144,-37.879]},"properties":{"labor_percent":null,"state":"VIC","liberal_percent":43.58,"the_greens_vic_percent":13.07,"polling_place_name":"Syndal South","division_name":"Chisholm","division_id":"205","polling_place_id":"3242"},"id":"aec_federal_election_first_preference_by_polling_place_2019.3242"},{"type":"Feature","geometry":{"type":"Point","coordinates":[145.184,-37.9145]},"properties":{"labor_percent":null,"state":"VIC","liberal_percent":45.59,"the_greens_vic_percent":6.74,"polling_place_name":"Waverley Meadows","division_name":"Hotham","division_id":"217","polling_place_id":"3243"},"id":"aec_federal_election_first_preference_by_polling_place_2019.3243"},{"type":"Feature","geometry":{"type":"Point","coordinates":[145.178,-37.9006]},"properties":{"labor_percent":null,"state":"VIC","liberal_percent":51.22,"the_greens_vic_percent":9.09,"polling_place_name":"Wheelers Hill","division_name":"Hotham","division_id":"217","polling_place_id":"3246"},"id":"aec_federal_election_first_preference_by_polling_place_2019.3246"},{"type":"Feature","geometry":{"type":"Point","coordinates":[145.19,-37.9176]},"properties":{"labor_percent":null,"state":"VIC","liberal_percent":55.17,"the_greens_vic_percent":5.57,"polling_place_name":"Wheelers Hill South","division_name":"Hotham","division_id":"217","polling_place_id":"3247"},"id":"aec_federal_election_first_preference_by_polling_place_2019.3247"},{"type":"Feature","geometry":{"type":"Point","coordinates":[144.43515,-37.67221]},"properties":{"labor_percent":null,"state":"VIC","liberal_percent":29.7,"the_greens_vic_percent":8.87,"polling_place_name":"Bacchus Marsh","division_name":"Ballarat","division_id":"198","polling_place_id":"3252"},"id":"aec_federal_election_first_preference_by_polling_place_2019.3252"},{"type":"Feature","geometry":{"type":"Point","coordinates":[144.918,-37.66]},"properties":{"labor_percent":null,"state":"VIC","liberal_percent":12.24,"the_greens_vic_percent":8.01,"polling_place_name":"Bethal","division_name":"Calwell","division_id":"203","polling_place_id":"3258"},"id":"aec_federal_election_first_preference_by_polling_place_2019.3258"},{"type":"Feature","geometry":{"type":"Point","coordinates":[144.744788,-37.4331792]},"properties":{"labor_percent":null,"state":"VIC","liberal_percent":46.59,"the_greens_vic_percent":4.83,"polling_place_name":"Bolinda","division_name":"McEwen","division_id":"226","polling_place_id":"3260"},"id":"aec_federal_election_first_preference_by_polling_place_2019.3260"},{"type":"Feature","geometry":{"type":"Point","coordinates":[144.517,-37.4863]},"properties":{"labor_percent":null,"state":"VIC","liberal_percent":44.97,"the_greens_vic_percent":10.38,"polling_place_name":"Bullengarook","division_name":"McEwen","division_id":"226","polling_place_id":"3263"},"id":"aec_federal_election_first_preference_by_polling_place_2019.3263"},{"type":"Feature","geometry":{"type":"Point","coordinates":[144.93,-37.662]},"properties":{"labor_percent":null,"state":"VIC","liberal_percent":13.63,"the_greens_vic_percent":5.52,"polling_place_name":"Coolaroo","division_name":"Calwell","division_id":"203","polling_place_id":"3273"},"id":"aec_federal_election_first_preference_by_polling_place_2019.3273"},{"type":"Feature","geometry":{"type":"Point","coordinates":[144.934,-37.5993]},"properties":{"labor_percent":null,"state":"VIC","liberal_percent":20.82,"the_greens_vic_percent":6.94,"polling_place_name":"Craigieburn","division_name":"Calwell","division_id":"203","polling_place_id":"3275"},"id":"aec_federal_election_first_preference_by_polling_place_2019.3275"},{"type":"Feature","geometry":{"type":"Point","coordinates":[144.437413,-37.655262]},"properties":{"labor_percent":null,"state":"VIC","liberal_percent":29.93,"the_greens_vic_percent":7.64,"polling_place_name":"Darley","division_name":"Ballarat","division_id":"198","polling_place_id":"3276"},"id":"aec_federal_election_first_preference_by_polling_place_2019.3276"},{"type":"Feature","geometry":{"type":"Point","coordinates":[144.5881462,-37.4905744]},"properties":{"labor_percent":null,"state":"VIC","liberal_percent":39.6,"the_greens_vic_percent":10.08,"polling_place_name":"Gisborne","division_name":"McEwen","division_id":"226","polling_place_id":"3284"},"id":"aec_federal_election_first_preference_by_polling_place_2019.3284"},{"type":"Feature","geometry":{"type":"Point","coordinates":[144.886,-37.6405]},"properties":{"labor_percent":null,"state":"VIC","liberal_percent":37.97,"the_greens_vic_percent":6.85,"polling_place_name":"Greenvale","division_name":"Calwell","division_id":"203","polling_place_id":"3288"},"id":"aec_federal_election_first_preference_by_polling_place_2019.3288"},{"type":"Feature","geometry":{"type":"Point","coordinates":[144.459,-37.2479]},"properties":{"labor_percent":null,"state":"VIC","liberal_percent":28.67,"the_greens_vic_percent":17.28,"polling_place_name":"Kyneton","division_name":"Bendigo","division_id":"200","polling_place_id":"3298"},"id":"aec_federal_election_first_preference_by_polling_place_2019.3298"},{"type":"Feature","geometry":{"type":"Point","coordinates":[144.727,-37.2748]},"properties":{"labor_percent":null,"state":"VIC","liberal_percent":36.9,"the_greens_vic_percent":7.29,"polling_place_name":"Lancefield","division_name":"McEwen","division_id":"226","polling_place_id":"3299"},"id":"aec_federal_election_first_preference_by_polling_place_2019.3299"},{"type":"Feature","geometry":{"type":"Point","coordinates":[144.563,-37.4189]},"properties":{"labor_percent":null,"state":"VIC","liberal_percent":33.53,"the_greens_vic_percent":13.08,"polling_place_name":"Macedon","division_name":"McEwen","division_id":"226","polling_place_id":"3302"},"id":"aec_federal_election_first_preference_by_polling_place_2019.3302"},{"type":"Feature","geometry":{"type":"Point","coordinates":[144.389,-37.1874]},"properties":{"labor_percent":null,"state":"VIC","liberal_percent":27.2,"the_greens_vic_percent":17.12,"polling_place_name":"Malmsbury","division_name":"Bendigo","division_id":"200","polling_place_id":"3305"},"id":"aec_federal_election_first_preference_by_polling_place_2019.3305"},{"type":"Feature","geometry":{"type":"Point","coordinates":[144.9289,-37.69258]},"properties":{"labor_percent":null,"state":"VIC","liberal_percent":9.77,"the_greens_vic_percent":7.4,"polling_place_name":"Meadows","division_name":"Calwell","division_id":"203","polling_place_id":"3307"},"id":"aec_federal_election_first_preference_by_polling_place_2019.3307"},{"type":"Feature","geometry":{"type":"Point","coordinates":[144.583,-37.4051]},"properties":{"labor_percent":null,"state":"VIC","liberal_percent":40.88,"the_greens_vic_percent":18.25,"polling_place_name":"Mount Macedon","division_name":"McEwen","division_id":"226","polling_place_id":"3313"},"id":"aec_federal_election_first_preference_by_polling_place_2019.3313"},{"type":"Feature","geometry":{"type":"Point","coordinates":[144.346502,-37.619648]},"properties":{"labor_percent":null,"state":"VIC","liberal_percent":31.55,"the_greens_vic_percent":8.82,"polling_place_name":"Myrniong","division_name":"Ballarat","division_id":"198","polling_place_id":"3316"},"id":"aec_federal_election_first_preference_by_polling_place_2019.3316"},{"type":"Feature","geometry":{"type":"Point","coordinates":[144.596,-37.4624]},"properties":{"labor_percent":null,"state":"VIC","liberal_percent":41.82,"the_greens_vic_percent":9.17,"polling_place_name":"New Gisborne","division_name":"McEwen","division_id":"226","polling_place_id":"3317"},"id":"aec_federal_election_first_preference_by_polling_place_2019.3317"},{"type":"Feature","geometry":{"type":"Point","coordinates":[144.594,-37.3135]},"properties":{"labor_percent":null,"state":"VIC","liberal_percent":38.73,"the_greens_vic_percent":17.72,"polling_place_name":"Newham","division_name":"Bendigo","division_id":"200","polling_place_id":"3318"},"id":"aec_federal_election_first_preference_by_polling_place_2019.3318"},{"type":"Feature","geometry":{"type":"Point","coordinates":[144.679,-37.4609]},"properties":{"labor_percent":null,"state":"VIC","liberal_percent":34.52,"the_greens_vic_percent":13.51,"polling_place_name":"Riddell","division_name":"McEwen","division_id":"226","polling_place_id":"3322"},"id":"aec_federal_election_first_preference_by_polling_place_2019.3322"},{"type":"Feature","geometry":{"type":"Point","coordinates":[144.744401,-37.3538868]},"properties":{"labor_percent":null,"state":"VIC","liberal_percent":32.74,"the_greens_vic_percent":8.05,"polling_place_name":"Romsey","division_name":"McEwen","division_id":"226","polling_place_id":"3323"},"id":"aec_federal_election_first_preference_by_polling_place_2019.3323"},{"type":"Feature","geometry":{"type":"Point","coordinates":[144.7304964,-37.5741322]},"properties":{"labor_percent":null,"state":"VIC","liberal_percent":34.97,"the_greens_vic_percent":11.12,"polling_place_name":"Sunbury","division_name":"McEwen","division_id":"226","polling_place_id":"3327"},"id":"aec_federal_election_first_preference_by_polling_place_2019.3327"},{"type":"Feature","geometry":{"type":"Point","coordinates":[144.728,-37.5657]},"properties":{"labor_percent":null,"state":"VIC","liberal_percent":30.12,"the_greens_vic_percent":11.13,"polling_place_name":"Sunbury North","division_name":"McEwen","division_id":"226","polling_place_id":"3329"},"id":"aec_federal_election_first_preference_by_polling_place_2019.3329"},{"type":"Feature","geometry":{"type":"Point","coordinates":[144.713,-37.5752]},"properties":{"labor_percent":null,"state":"VIC","liberal_percent":30.51,"the_greens_vic_percent":9.38,"polling_place_name":"Sunbury West","division_name":"McEwen","division_id":"226","polling_place_id":"3330"},"id":"aec_federal_election_first_preference_by_polling_place_2019.3330"},{"type":"Feature","geometry":{"type":"Point","coordinates":[144.594,-37.6052]},"properties":{"labor_percent":null,"state":"VIC","liberal_percent":40.6,"the_greens_vic_percent":4.36,"polling_place_name":"Toolern Vale","division_name":"Gorton","division_id":"309","polling_place_id":"3334"},"id":"aec_federal_election_first_preference_by_polling_place_2019.3334"},{"type":"Feature","geometry":{"type":"Point","coordinates":[144.409,-37.3248]},"properties":{"labor_percent":null,"state":"VIC","liberal_percent":36.83,"the_greens_vic_percent":11.61,"polling_place_name":"Tylden","division_name":"Bendigo","division_id":"200","polling_place_id":"3336"},"id":"aec_federal_election_first_preference_by_polling_place_2019.3336"},{"type":"Feature","geometry":{"type":"Point","coordinates":[144.521,-37.3536]},"properties":{"labor_percent":null,"state":"VIC","liberal_percent":29.15,"the_greens_vic_percent":16.64,"polling_place_name":"Woodend","division_name":"Bendigo","division_id":"200","polling_place_id":"3339"},"id":"aec_federal_election_first_preference_by_polling_place_2019.3339"},{"type":"Feature","geometry":{"type":"Point","coordinates":[144.775815,-37.7378698]},"properties":{"labor_percent":null,"state":"VIC","liberal_percent":15.27,"the_greens_vic_percent":7.22,"polling_place_name":"Albanvale (Fraser)","division_name":"Fraser","division_id":"321","polling_place_id":"3345"},"id":"aec_federal_election_first_preference_by_polling_place_2019.3345"},{"type":"Feature","geometry":{"type":"Point","coordinates":[144.82,-37.7782]},"properties":{"labor_percent":null,"state":"VIC","liberal_percent":21.96,"the_greens_vic_percent":16.79,"polling_place_name":"Albion","division_name":"Fraser","division_id":"321","polling_place_id":"3346"},"id":"aec_federal_election_first_preference_by_polling_place_2019.3346"},{"type":"Feature","geometry":{"type":"Point","coordinates":[144.823,-37.7627]},"properties":{"labor_percent":null,"state":"VIC","liberal_percent":18.15,"the_greens_vic_percent":7.65,"polling_place_name":"Sunshine North West","division_name":"Fraser","division_id":"321","polling_place_id":"3347"},"id":"aec_federal_election_first_preference_by_polling_place_2019.3347"},{"type":"Feature","geometry":{"type":"Point","coordinates":[144.861,-37.7661]},"properties":{"labor_percent":null,"state":"VIC","liberal_percent":28.48,"the_greens_vic_percent":10.72,"polling_place_name":"Avondale Heights","division_name":"Maribyrnong","division_id":"225","polling_place_id":"3348"},"id":"aec_federal_election_first_preference_by_polling_place_2019.3348"},{"type":"Feature","geometry":{"type":"Point","coordinates":[144.84533,-37.78309]},"properties":{"labor_percent":null,"state":"VIC","liberal_percent":19.97,"the_greens_vic_percent":13.06,"polling_place_name":"Sunvale","division_name":"Fraser","division_id":"321","polling_place_id":"3350"},"id":"aec_federal_election_first_preference_by_polling_place_2019.3350"},{"type":"Feature","geometry":{"type":"Point","coordinates":[144.708,-37.6236]},"properties":{"labor_percent":null,"state":"VIC","liberal_percent":27.98,"the_greens_vic_percent":7.45,"polling_place_name":"Diggers Rest","division_name":"Gorton","division_id":"309","polling_place_id":"3352"},"id":"aec_federal_election_first_preference_by_polling_place_2019.3352"},{"type":"Feature","geometry":{"type":"Point","coordinates":[144.814,-37.7988]},"properties":{"labor_percent":null,"state":"VIC","liberal_percent":17.98,"the_greens_vic_percent":12.34,"polling_place_name":"Glengala South","division_name":"Fraser","division_id":"321","polling_place_id":"3354"},"id":"aec_federal_election_first_preference_by_polling_place_2019.3354"},{"type":"Feature","geometry":{"type":"Point","coordinates":[144.819473,-37.7341]},"properties":{"labor_percent":null,"state":"VIC","liberal_percent":31.14,"the_greens_vic_percent":8.5,"polling_place_name":"Kealba","division_name":"Fraser","division_id":"321","polling_place_id":"3355"},"id":"aec_federal_election_first_preference_by_polling_place_2019.3355"},{"type":"Feature","geometry":{"type":"Point","coordinates":[144.835,-37.7166]},"properties":{"labor_percent":null,"state":"VIC","liberal_percent":49.59,"the_greens_vic_percent":8.55,"polling_place_name":"Keilor (Fraser)","division_name":"Fraser","division_id":"321","polling_place_id":"3356"},"id":"aec_federal_election_first_preference_by_polling_place_2019.3356"},{"type":"Feature","geometry":{"type":"Point","coordinates":[144.809001,-37.71767]},"properties":{"labor_percent":null,"state":"VIC","liberal_percent":32.29,"the_greens_vic_percent":6.4,"polling_place_name":"Keilor Downs","division_name":"Fraser","division_id":"321","polling_place_id":"3357"},"id":"aec_federal_election_first_preference_by_polling_place_2019.3357"},{"type":"Feature","geometry":{"type":"Point","coordinates":[144.85877,-37.74408]},"properties":{"labor_percent":null,"state":"VIC","liberal_percent":36.42,"the_greens_vic_percent":5.82,"polling_place_name":"Keilor East","division_name":"Maribyrnong","division_id":"225","polling_place_id":"3358"},"id":"aec_federal_election_first_preference_by_polling_place_2019.3358"},{"type":"Feature","geometry":{"type":"Point","coordinates":[144.772,-37.7329]},"properties":{"labor_percent":null,"state":"VIC","liberal_percent":18.03,"the_greens_vic_percent":5.15,"polling_place_name":"Kings Park (Fraser)","division_name":"Fraser","division_id":"321","polling_place_id":"3359"},"id":"aec_federal_election_first_preference_by_polling_place_2019.3359"},{"type":"Feature","geometry":{"type":"Point","coordinates":[144.811,-37.742]},"properties":{"labor_percent":null,"state":"VIC","liberal_percent":17.45,"the_greens_vic_percent":7.23,"polling_place_name":"St Albans East","division_name":"Fraser","division_id":"321","polling_place_id":"3361"},"id":"aec_federal_election_first_preference_by_polling_place_2019.3361"},{"type":"Feature","geometry":{"type":"Point","coordinates":[144.801,-37.7319]},"properties":{"labor_percent":null,"state":"VIC","liberal_percent":15.22,"the_greens_vic_percent":6.73,"polling_place_name":"St Albans North","division_name":"Fraser","division_id":"321","polling_place_id":"3362"},"id":"aec_federal_election_first_preference_by_polling_place_2019.3362"},{"type":"Feature","geometry":{"type":"Point","coordinates":[144.804,-37.755]},"properties":{"labor_percent":null,"state":"VIC","liberal_percent":15.43,"the_greens_vic_percent":7.87,"polling_place_name":"St Albans South","division_name":"Fraser","division_id":"321","polling_place_id":"3363"},"id":"aec_federal_election_first_preference_by_polling_place_2019.3363"},{"type":"Feature","geometry":{"type":"Point","coordinates":[144.815,-37.7558]},"properties":{"labor_percent":null,"state":"VIC","liberal_percent":17.97,"the_greens_vic_percent":7.81,"polling_place_name":"St Albans South East","division_name":"Fraser","division_id":"321","polling_place_id":"3364"},"id":"aec_federal_election_first_preference_by_polling_place_2019.3364"},{"type":"Feature","geometry":{"type":"Point","coordinates":[144.786,-37.7411]},"properties":{"labor_percent":null,"state":"VIC","liberal_percent":17.82,"the_greens_vic_percent":7.89,"polling_place_name":"St Albans West (Fraser)","division_name":"Fraser","division_id":"321","polling_place_id":"3365"},"id":"aec_federal_election_first_preference_by_polling_place_2019.3365"},{"type":"Feature","geometry":{"type":"Point","coordinates":[144.83752,-37.77158]},"properties":{"labor_percent":null,"state":"VIC","liberal_percent":19.13,"the_greens_vic_percent":9.75,"polling_place_name":"Sunshine North","division_name":"Fraser","division_id":"321","polling_place_id":"3367"},"id":"aec_federal_election_first_preference_by_polling_place_2019.3367"},{"type":"Feature","geometry":{"type":"Point","coordinates":[145.313613,-37.773913]},"properties":{"labor_percent":null,"state":"VIC","liberal_percent":43.56,"the_greens_vic_percent":8.53,"polling_place_name":"Bimbadeen Heights","division_name":"Casey","division_id":"204","polling_place_id":"3372"},"id":"aec_federal_election_first_preference_by_polling_place_2019.3372"},{"type":"Feature","geometry":{"type":"Point","coordinates":[145.313,-37.7505]},"properties":{"labor_percent":null,"state":"VIC","liberal_percent":52.52,"the_greens_vic_percent":7.26,"polling_place_name":"Chirnside Park","division_name":"Casey","division_id":"204","polling_place_id":"3373"},"id":"aec_federal_election_first_preference_by_polling_place_2019.3373"},{"type":"Feature","geometry":{"type":"Point","coordinates":[145.382,-37.7336]},"properties":{"labor_percent":null,"state":"VIC","liberal_percent":50.23,"the_greens_vic_percent":8.02,"polling_place_name":"Coldstream","division_name":"Casey","division_id":"204","polling_place_id":"3375"},"id":"aec_federal_election_first_preference_by_polling_place_2019.3375"},{"type":"Feature","geometry":{"type":"Point","coordinates":[145.2822375,-37.789014]},"properties":{"labor_percent":null,"state":"VIC","liberal_percent":45.84,"the_greens_vic_percent":7.99,"polling_place_name":"Croydon Central","division_name":"Deakin","division_id":"209","polling_place_id":"3376"},"id":"aec_federal_election_first_preference_by_polling_place_2019.3376"},{"type":"Feature","geometry":{"type":"Point","coordinates":[145.272,-37.7763]},"properties":{"labor_percent":null,"state":"VIC","liberal_percent":55.0,"the_greens_vic_percent":7.5,"polling_place_name":"Croydon Hills (Menzies)","division_name":"Menzies","division_id":"229","polling_place_id":"3377"},"id":"aec_federal_election_first_preference_by_polling_place_2019.3377"},{"type":"Feature","geometry":{"type":"Point","coordinates":[145.295919,-37.768851]},"properties":{"labor_percent":null,"state":"VIC","liberal_percent":44.61,"the_greens_vic_percent":9.19,"polling_place_name":"Croydon North (Deakin)","division_name":"Deakin","division_id":"209","polling_place_id":"3378"},"id":"aec_federal_election_first_preference_by_polling_place_2019.3378"},{"type":"Feature","geometry":{"type":"Point","coordinates":[145.264,-37.7942]},"properties":{"labor_percent":null,"state":"VIC","liberal_percent":43.93,"the_greens_vic_percent":11.0,"polling_place_name":"Croydon West","division_name":"Deakin","division_id":"209","polling_place_id":"3379"},"id":"aec_federal_election_first_preference_by_polling_place_2019.3379"},{"type":"Feature","geometry":{"type":"Point","coordinates":[145.1579677,-37.6718305]},"properties":{"labor_percent":null,"state":"VIC","liberal_percent":40.2,"the_greens_vic_percent":12.44,"polling_place_name":"Diamond Creek","division_name":"Jagajaga","division_id":"220","polling_place_id":"3380"},"id":"aec_federal_election_first_preference_by_polling_place_2019.3380"},{"type":"Feature","geometry":{"type":"Point","coordinates":[145.167,-37.6737]},"properties":{"labor_percent":null,"state":"VIC","liberal_percent":39.92,"the_greens_vic_percent":11.12,"polling_place_name":"Diamond Creek East","division_name":"Jagajaga","division_id":"220","polling_place_id":"3381"},"id":"aec_federal_election_first_preference_by_polling_place_2019.3381"},{"type":"Feature","geometry":{"type":"Point","coordinates":[145.413,-37.5927]},"properties":{"labor_percent":null,"state":"VIC","liberal_percent":56.22,"the_greens_vic_percent":11.98,"polling_place_name":"Dixons Creek","division_name":"Casey","division_id":"204","polling_place_id":"3382"},"id":"aec_federal_election_first_preference_by_polling_place_2019.3382"},{"type":"Feature","geometry":{"type":"Point","coordinates":[145.199,-37.79107]},"properties":{"labor_percent":null,"state":"VIC","liberal_percent":61.0,"the_greens_vic_percent":7.9,"polling_place_name":"Donvale","division_name":"Menzies","division_id":"229","polling_place_id":"3383"},"id":"aec_federal_election_first_preference_by_polling_place_2019.3383"},{"type":"Feature","geometry":{"type":"Point","coordinates":[145.451,-37.734]},"properties":{"labor_percent":null,"state":"VIC","liberal_percent":61.49,"the_greens_vic_percent":6.9,"polling_place_name":"Gruyere","division_name":"Casey","division_id":"204","polling_place_id":"3384"},"id":"aec_federal_election_first_preference_by_polling_place_2019.3384"},{"type":"Feature","geometry":{"type":"Point","coordinates":[145.1983124,-37.6362086]},"properties":{"labor_percent":null,"state":"VIC","liberal_percent":29.84,"the_greens_vic_percent":21.1,"polling_place_name":"Hurstbridge","division_name":"McEwen","division_id":"226","polling_place_id":"3385"},"id":"aec_federal_election_first_preference_by_polling_place_2019.3385"},{"type":"Feature","geometry":{"type":"Point","coordinates":[145.255,-37.7899]},"properties":{"labor_percent":null,"state":"VIC","liberal_percent":47.46,"the_greens_vic_percent":8.57,"polling_place_name":"Kalinda (Deakin)","division_name":"Deakin","division_id":"209","polling_place_id":"3386"},"id":"aec_federal_election_first_preference_by_polling_place_2019.3386"},{"type":"Feature","geometry":{"type":"Point","coordinates":[145.215,-37.6914]},"properties":{"labor_percent":null,"state":"VIC","liberal_percent":53.42,"the_greens_vic_percent":11.99,"polling_place_name":"Kangaroo Ground (Menzies)","division_name":"Menzies","division_id":"229","polling_place_id":"3387"},"id":"aec_federal_election_first_preference_by_polling_place_2019.3387"},{"type":"Feature","geometry":{"type":"Point","coordinates":[145.35439,-37.753338]},"properties":{"labor_percent":null,"state":"VIC","liberal_percent":44.91,"the_greens_vic_percent":9.6,"polling_place_name":"Lilydale","division_name":"Casey","division_id":"204","polling_place_id":"3389"},"id":"aec_federal_election_first_preference_by_polling_place_2019.3389"},{"type":"Feature","geometry":{"type":"Point","coordinates":[145.336,-37.7556]},"properties":{"labor_percent":null,"state":"VIC","liberal_percent":46.88,"the_greens_vic_percent":7.96,"polling_place_name":"Lilydale West","division_name":"Casey","division_id":"204","polling_place_id":"3391"},"id":"aec_federal_election_first_preference_by_polling_place_2019.3391"},{"type":"Feature","geometry":{"type":"Point","coordinates":[145.31,-37.7719]},"properties":{"labor_percent":null,"state":"VIC","liberal_percent":42.56,"the_greens_vic_percent":7.89,"polling_place_name":"Manchester (Casey)","division_name":"Casey","division_id":"204","polling_place_id":"3392"},"id":"aec_federal_election_first_preference_by_polling_place_2019.3392"},{"type":"Feature","geometry":{"type":"Point","coordinates":[145.238,-37.8002]},"properties":{"labor_percent":null,"state":"VIC","liberal_percent":44.81,"the_greens_vic_percent":11.07,"polling_place_name":"Norwood","division_name":"Deakin","division_id":"209","polling_place_id":"3394"},"id":"aec_federal_election_first_preference_by_polling_place_2019.3394"},{"type":"Feature","geometry":{"type":"Point","coordinates":[145.239271,-37.641553]},"properties":{"labor_percent":null,"state":"VIC","liberal_percent":41.12,"the_greens_vic_percent":16.22,"polling_place_name":"Panton Hill","division_name":"McEwen","division_id":"226","polling_place_id":"3395"},"id":"aec_federal_election_first_preference_by_polling_place_2019.3395"},{"type":"Feature","geometry":{"type":"Point","coordinates":[145.215,-37.7794]},"properties":{"labor_percent":null,"state":"VIC","liberal_percent":57.3,"the_greens_vic_percent":12.92,"polling_place_name":"Park Orchards","division_name":"Menzies","division_id":"229","polling_place_id":"3396"},"id":"aec_federal_election_first_preference_by_polling_place_2019.3396"},{"type":"Feature","geometry":{"type":"Point","coordinates":[145.231113,-37.811809]},"properties":{"labor_percent":null,"state":"VIC","liberal_percent":36.83,"the_greens_vic_percent":14.45,"polling_place_name":"Ringwood","division_name":"Deakin","division_id":"209","polling_place_id":"3398"},"id":"aec_federal_election_first_preference_by_polling_place_2019.3398"},{"type":"Feature","geometry":{"type":"Point","coordinates":[145.244692,-37.8087032]},"properties":{"labor_percent":null,"state":"VIC","liberal_percent":45.15,"the_greens_vic_percent":11.46,"polling_place_name":"Ringwood East","division_name":"Deakin","division_id":"209","polling_place_id":"3399"},"id":"aec_federal_election_first_preference_by_polling_place_2019.3399"},{"type":"Feature","geometry":{"type":"Point","coordinates":[145.217,-37.8046]},"properties":{"labor_percent":null,"state":"VIC","liberal_percent":42.46,"the_greens_vic_percent":12.84,"polling_place_name":"Ringwood Heights","division_name":"Deakin","division_id":"209","polling_place_id":"3400"},"id":"aec_federal_election_first_preference_by_polling_place_2019.3400"},{"type":"Feature","geometry":{"type":"Point","coordinates":[145.23,-37.793]},"properties":{"labor_percent":null,"state":"VIC","liberal_percent":54.66,"the_greens_vic_percent":12.73,"polling_place_name":"Ringwood North (Menzies)","division_name":"Menzies","division_id":"229","polling_place_id":"3401"},"id":"aec_federal_election_first_preference_by_polling_place_2019.3401"},{"type":"Feature","geometry":{"type":"Point","coordinates":[145.329,-37.7668]},"properties":{"labor_percent":null,"state":"VIC","liberal_percent":50.53,"the_greens_vic_percent":6.13,"polling_place_name":"Rolling Hills","division_name":"Casey","division_id":"204","polling_place_id":"3402"},"id":"aec_federal_election_first_preference_by_polling_place_2019.3402"},{"type":"Feature","geometry":{"type":"Point","coordinates":[145.2748775,-37.5996759]},"properties":{"labor_percent":null,"state":"VIC","liberal_percent":27.21,"the_greens_vic_percent":20.98,"polling_place_name":"St Andrews","division_name":"McEwen","division_id":"226","polling_place_id":"3403"},"id":"aec_federal_election_first_preference_by_polling_place_2019.3403"},{"type":"Feature","geometry":{"type":"Point","coordinates":[145.174,-37.8009]},"properties":{"labor_percent":null,"state":"VIC","liberal_percent":47.31,"the_greens_vic_percent":9.88,"polling_place_name":"Tunstall","division_name":"Menzies","division_id":"229","polling_place_id":"3404"},"id":"aec_federal_election_first_preference_by_polling_place_2019.3404"},{"type":"Feature","geometry":{"type":"Point","coordinates":[145.214,-37.7427]},"properties":{"labor_percent":null,"state":"VIC","liberal_percent":42.38,"the_greens_vic_percent":18.59,"polling_place_name":"Warrandyte","division_name":"Menzies","division_id":"229","polling_place_id":"3405"},"id":"aec_federal_election_first_preference_by_polling_place_2019.3405"},{"type":"Feature","geometry":{"type":"Point","coordinates":[145.214912,-37.7294037]},"properties":{"labor_percent":null,"state":"VIC","liberal_percent":34.12,"the_greens_vic_percent":23.26,"polling_place_name":"Warrandyte North","division_name":"Menzies","division_id":"229","polling_place_id":"3406"},"id":"aec_federal_election_first_preference_by_polling_place_2019.3406"},{"type":"Feature","geometry":{"type":"Point","coordinates":[145.274,-37.7304]},"properties":{"labor_percent":null,"state":"VIC","liberal_percent":62.31,"the_greens_vic_percent":9.62,"polling_place_name":"Wonga Park","division_name":"Menzies","division_id":"229","polling_place_id":"3409"},"id":"aec_federal_election_first_preference_by_polling_place_2019.3409"},{"type":"Feature","geometry":{"type":"Point","coordinates":[145.3723919,-37.6496456]},"properties":{"labor_percent":null,"state":"VIC","liberal_percent":52.79,"the_greens_vic_percent":8.67,"polling_place_name":"Yarra Glen","division_name":"Casey","division_id":"204","polling_place_id":"3410"},"id":"aec_federal_election_first_preference_by_polling_place_2019.3410"},{"type":"Feature","geometry":{"type":"Point","coordinates":[145.197,-37.6364]},"properties":{"labor_percent":null,"state":"VIC","liberal_percent":48.18,"the_greens_vic_percent":6.84,"polling_place_name":"Yarrambat","division_name":"McEwen","division_id":"226","polling_place_id":"3411"},"id":"aec_federal_election_first_preference_by_polling_place_2019.3411"},{"type":"Feature","geometry":{"type":"Point","coordinates":[145.084,-37.8623]},"properties":{"labor_percent":null,"state":"VIC","liberal_percent":42.97,"the_greens_vic_percent":21.44,"polling_place_name":"Ashburton","division_name":"Higgins","division_id":"215","polling_place_id":"3416"},"id":"aec_federal_election_first_preference_by_polling_place_2019.3416"},{"type":"Feature","geometry":{"type":"Point","coordinates":[145.104,-37.8655]},"properties":{"labor_percent":null,"state":"VIC","liberal_percent":36.5,"the_greens_vic_percent":14.37,"polling_place_name":"Ashwood","division_name":"Chisholm","division_id":"205","polling_place_id":"3417"},"id":"aec_federal_election_first_preference_by_polling_place_2019.3417"},{"type":"Feature","geometry":{"type":"Point","coordinates":[145.147,-37.8357]},"properties":{"labor_percent":null,"state":"VIC","liberal_percent":40.97,"the_greens_vic_percent":12.51,"polling_place_name":"Blackburn South","division_name":"Chisholm","division_id":"205","polling_place_id":"3420"},"id":"aec_federal_election_first_preference_by_polling_place_2019.3420"},{"type":"Feature","geometry":{"type":"Point","coordinates":[145.127,-37.8191]},"properties":{"labor_percent":null,"state":"VIC","liberal_percent":33.89,"the_greens_vic_percent":17.4,"polling_place_name":"Box Hill","division_name":"Chisholm","division_id":"205","polling_place_id":"3421"},"id":"aec_federal_election_first_preference_by_polling_place_2019.3421"},{"type":"Feature","geometry":{"type":"Point","coordinates":[145.122,-37.8216]},"properties":{"labor_percent":null,"state":"VIC","liberal_percent":35.73,"the_greens_vic_percent":16.77,"polling_place_name":"Box Hill Central","division_name":"Chisholm","division_id":"205","polling_place_id":"3422"},"id":"aec_federal_election_first_preference_by_polling_place_2019.3422"},{"type":"Feature","geometry":{"type":"Point","coordinates":[145.125,-37.8352]},"properties":{"labor_percent":null,"state":"VIC","liberal_percent":36.12,"the_greens_vic_percent":18.93,"polling_place_name":"Box Hill South","division_name":"Chisholm","division_id":"205","polling_place_id":"3424"},"id":"aec_federal_election_first_preference_by_polling_place_2019.3424"},{"type":"Feature","geometry":{"type":"Point","coordinates":[145.089,-37.8542]},"properties":{"labor_percent":null,"state":"VIC","liberal_percent":46.74,"the_greens_vic_percent":21.98,"polling_place_name":"Burwood","division_name":"Higgins","division_id":"215","polling_place_id":"3425"},"id":"aec_federal_election_first_preference_by_polling_place_2019.3425"},{"type":"Feature","geometry":{"type":"Point","coordinates":[145.097,-37.8493]},"properties":{"labor_percent":null,"state":"VIC","liberal_percent":40.54,"the_greens_vic_percent":15.42,"polling_place_name":"Burwood Central","division_name":"Chisholm","division_id":"205","polling_place_id":"3426"},"id":"aec_federal_election_first_preference_by_polling_place_2019.3426"},{"type":"Feature","geometry":{"type":"Point","coordinates":[145.0829161,-37.830506]},"properties":{"labor_percent":null,"state":"VIC","liberal_percent":45.9,"the_greens_vic_percent":23.08,"polling_place_name":"Chatham","division_name":"Kooyong","division_id":"221","polling_place_id":"3427"},"id":"aec_federal_election_first_preference_by_polling_place_2019.3427"},{"type":"Feature","geometry":{"type":"Point","coordinates":[145.11068,-37.83009]},"properties":{"labor_percent":null,"state":"VIC","liberal_percent":44.18,"the_greens_vic_percent":15.99,"polling_place_name":"Elgar Park (Chisholm)","division_name":"Chisholm","division_id":"205","polling_place_id":"3429"},"id":"aec_federal_election_first_preference_by_polling_place_2019.3429"},{"type":"Feature","geometry":{"type":"Point","coordinates":[145.115,-37.8631]},"properties":{"labor_percent":null,"state":"VIC","liberal_percent":43.24,"the_greens_vic_percent":12.69,"polling_place_name":"Essex Heights","division_name":"Chisholm","division_id":"205","polling_place_id":"3430"},"id":"aec_federal_election_first_preference_by_polling_place_2019.3430"},{"type":"Feature","geometry":{"type":"Point","coordinates":[145.084,-37.8478]},"properties":{"labor_percent":null,"state":"VIC","liberal_percent":44.51,"the_greens_vic_percent":20.88,"polling_place_name":"Hartwell","division_name":"Kooyong","division_id":"221","polling_place_id":"3431"},"id":"aec_federal_election_first_preference_by_polling_place_2019.3431"},{"type":"Feature","geometry":{"type":"Point","coordinates":[145.084,-37.8389]},"properties":{"labor_percent":null,"state":"VIC","liberal_percent":51.21,"the_greens_vic_percent":20.67,"polling_place_name":"Highfield Park","division_name":"Kooyong","division_id":"221","polling_place_id":"3432"},"id":"aec_federal_election_first_preference_by_polling_place_2019.3432"},{"type":"Feature","geometry":{"type":"Point","coordinates":[145.135,-37.8036]},"properties":{"labor_percent":null,"state":"VIC","liberal_percent":39.21,"the_greens_vic_percent":13.35,"polling_place_name":"Kerrimuir","division_name":"Chisholm","division_id":"205","polling_place_id":"3435"},"id":"aec_federal_election_first_preference_by_polling_place_2019.3435"},{"type":"Feature","geometry":{"type":"Point","coordinates":[145.117,-37.8026]},"properties":{"labor_percent":null,"state":"VIC","liberal_percent":33.18,"the_greens_vic_percent":15.17,"polling_place_name":"Koonung Heights (Chisholm)","division_name":"Chisholm","division_id":"205","polling_place_id":"3436"},"id":"aec_federal_election_first_preference_by_polling_place_2019.3436"},{"type":"Feature","geometry":{"type":"Point","coordinates":[145.1100492,-37.8047399]},"properties":{"labor_percent":null,"state":"VIC","liberal_percent":42.2,"the_greens_vic_percent":26.06,"polling_place_name":"Mont Albert","division_name":"Kooyong","division_id":"221","polling_place_id":"3438"},"id":"aec_federal_election_first_preference_by_polling_place_2019.3438"},{"type":"Feature","geometry":{"type":"Point","coordinates":[145.123,-37.8816]},"properties":{"labor_percent":null,"state":"VIC","liberal_percent":42.85,"the_greens_vic_percent":13.95,"polling_place_name":"Mount Waverley South (Chisholm)","division_name":"Chisholm","division_id":"205","polling_place_id":"3439"},"id":"aec_federal_election_first_preference_by_polling_place_2019.3439"},{"type":"Feature","geometry":{"type":"Point","coordinates":[145.101,-37.826]},"properties":{"labor_percent":null,"state":"VIC","liberal_percent":46.37,"the_greens_vic_percent":21.65,"polling_place_name":"Surrey Hills (Kooyong)","division_name":"Kooyong","division_id":"221","polling_place_id":"3440"},"id":"aec_federal_election_first_preference_by_polling_place_2019.3440"},{"type":"Feature","geometry":{"type":"Point","coordinates":[145.123,-37.8009]},"properties":{"labor_percent":null,"state":"VIC","liberal_percent":35.1,"the_greens_vic_percent":13.68,"polling_place_name":"Tyne","division_name":"Chisholm","division_id":"205","polling_place_id":"3441"},"id":"aec_federal_election_first_preference_by_polling_place_2019.3441"},{"type":"Feature","geometry":{"type":"Point","coordinates":[145.1196367,-37.8387291]},"properties":{"labor_percent":null,"state":"VIC","liberal_percent":38.04,"the_greens_vic_percent":15.41,"polling_place_name":"Wattle Park","division_name":"Chisholm","division_id":"205","polling_place_id":"3443"},"id":"aec_federal_election_first_preference_by_polling_place_2019.3443"},{"type":"Feature","geometry":{"type":"Point","coordinates":[145.133,-37.8692]},"properties":{"labor_percent":null,"state":"VIC","liberal_percent":39.24,"the_greens_vic_percent":10.25,"polling_place_name":"Waverley North","division_name":"Chisholm","division_id":"205","polling_place_id":"3444"},"id":"aec_federal_election_first_preference_by_polling_place_2019.3444"},{"type":"Feature","geometry":{"type":"Point","coordinates":[144.487,-38.2817]},"properties":{"labor_percent":null,"state":"VIC","liberal_percent":43.79,"the_greens_vic_percent":13.92,"polling_place_name":"Barwon Heads","division_name":"Corangamite","division_id":"207","polling_place_id":"3457"},"id":"aec_federal_election_first_preference_by_polling_place_2019.3457"},{"type":"Feature","geometry":{"type":"Point","coordinates":[144.342,-38.1708]},"properties":{"labor_percent":null,"state":"VIC","liberal_percent":34.02,"the_greens_vic_percent":19.31,"polling_place_name":"Belmont North","division_name":"Corio","division_id":"208","polling_place_id":"3464"},"id":"aec_federal_election_first_preference_by_polling_place_2019.3464"},{"type":"Feature","geometry":{"type":"Point","coordinates":[144.553,-38.166]},"properties":{"labor_percent":null,"state":"VIC","liberal_percent":37.54,"the_greens_vic_percent":7.33,"polling_place_name":"Clifton Springs","division_name":"Corangamite","division_id":"207","polling_place_id":"3468"},"id":"aec_federal_election_first_preference_by_polling_place_2019.3468"},{"type":"Feature","geometry":{"type":"Point","coordinates":[144.397,-38.2649]},"properties":{"labor_percent":null,"state":"VIC","liberal_percent":54.73,"the_greens_vic_percent":7.96,"polling_place_name":"Connewarre","division_name":"Corangamite","division_id":"207","polling_place_id":"3474"},"id":"aec_federal_election_first_preference_by_polling_place_2019.3474"},{"type":"Feature","geometry":{"type":"Point","coordinates":[144.5748,-38.16933]},"properties":{"labor_percent":null,"state":"VIC","liberal_percent":42.74,"the_greens_vic_percent":7.38,"polling_place_name":"Drysdale","division_name":"Corangamite","division_id":"207","polling_place_id":"3478"},"id":"aec_federal_election_first_preference_by_polling_place_2019.3478"},{"type":"Feature","geometry":{"type":"Point","coordinates":[144.463,-38.1879]},"properties":{"labor_percent":null,"state":"VIC","liberal_percent":40.84,"the_greens_vic_percent":5.61,"polling_place_name":"Leopold","division_name":"Corangamite","division_id":"207","polling_place_id":"3496"},"id":"aec_federal_election_first_preference_by_polling_place_2019.3496"},{"type":"Feature","geometry":{"type":"Point","coordinates":[144.3374096,-38.1866648]},"properties":{"labor_percent":null,"state":"VIC","liberal_percent":29.47,"the_greens_vic_percent":17.89,"polling_place_name":"Belmont","division_name":"Corio","division_id":"208","polling_place_id":"3506"},"id":"aec_federal_election_first_preference_by_polling_place_2019.3506"},{"type":"Feature","geometry":{"type":"Point","coordinates":[144.5095105,-38.2609608]},"properties":{"labor_percent":null,"state":"VIC","liberal_percent":39.13,"the_greens_vic_percent":12.2,"polling_place_name":"Ocean Grove West","division_name":"Corangamite","division_id":"207","polling_place_id":"3508"},"id":"aec_federal_election_first_preference_by_polling_place_2019.3508"},{"type":"Feature","geometry":{"type":"Point","coordinates":[144.621,-38.2735]},"properties":{"labor_percent":null,"state":"VIC","liberal_percent":46.45,"the_greens_vic_percent":10.32,"polling_place_name":"Point Lonsdale","division_name":"Corangamite","division_id":"207","polling_place_id":"3510"},"id":"aec_federal_election_first_preference_by_polling_place_2019.3510"},{"type":"Feature","geometry":{"type":"Point","coordinates":[144.656,-38.115]},"properties":{"labor_percent":null,"state":"VIC","liberal_percent":44.67,"the_greens_vic_percent":4.9,"polling_place_name":"Portarlington","division_name":"Corangamite","division_id":"207","polling_place_id":"3511"},"id":"aec_federal_election_first_preference_by_polling_place_2019.3511"},{"type":"Feature","geometry":{"type":"Point","coordinates":[144.656,-38.267]},"properties":{"labor_percent":null,"state":"VIC","liberal_percent":42.86,"the_greens_vic_percent":12.61,"polling_place_name":"Queenscliff","division_name":"Corangamite","division_id":"207","polling_place_id":"3512"},"id":"aec_federal_election_first_preference_by_polling_place_2019.3512"},{"type":"Feature","geometry":{"type":"Point","coordinates":[144.715,-38.1728]},"properties":{"labor_percent":null,"state":"VIC","liberal_percent":40.7,"the_greens_vic_percent":6.48,"polling_place_name":"St Leonards","division_name":"Corangamite","division_id":"207","polling_place_id":"3514"},"id":"aec_federal_election_first_preference_by_polling_place_2019.3514"},{"type":"Feature","geometry":{"type":"Point","coordinates":[144.507,-38.2185]},"properties":{"labor_percent":null,"state":"VIC","liberal_percent":47.94,"the_greens_vic_percent":10.17,"polling_place_name":"Wallington","division_name":"Corangamite","division_id":"207","polling_place_id":"3519"},"id":"aec_federal_election_first_preference_by_polling_place_2019.3519"},{"type":"Feature","geometry":{"type":"Point","coordinates":[144.35902,-38.15675]},"properties":{"labor_percent":null,"state":"VIC","liberal_percent":30.51,"the_greens_vic_percent":21.94,"polling_place_name":"Geelong South","division_name":"Corio","division_id":"208","polling_place_id":"3528"},"id":"aec_federal_election_first_preference_by_polling_place_2019.3528"},{"type":"Feature","geometry":{"type":"Point","coordinates":[144.33576,-38.10582]},"properties":{"labor_percent":null,"state":"VIC","liberal_percent":32.04,"the_greens_vic_percent":8.97,"polling_place_name":"Bell Park","division_name":"Corio","division_id":"208","polling_place_id":"3530"},"id":"aec_federal_election_first_preference_by_polling_place_2019.3530"},{"type":"Feature","geometry":{"type":"Point","coordinates":[144.346,-38.1351]},"properties":{"labor_percent":null,"state":"VIC","liberal_percent":30.38,"the_greens_vic_percent":20.98,"polling_place_name":"Britannia","division_name":"Corio","division_id":"208","polling_place_id":"3532"},"id":"aec_federal_election_first_preference_by_polling_place_2019.3532"},{"type":"Feature","geometry":{"type":"Point","coordinates":[144.345,-38.1554]},"properties":{"labor_percent":null,"state":"VIC","liberal_percent":45.61,"the_greens_vic_percent":16.67,"polling_place_name":"Newtown South","division_name":"Corio","division_id":"208","polling_place_id":"3533"},"id":"aec_federal_election_first_preference_by_polling_place_2019.3533"},{"type":"Feature","geometry":{"type":"Point","coordinates":[144.344,-38.0726]},"properties":{"labor_percent":null,"state":"VIC","liberal_percent":20.16,"the_greens_vic_percent":8.58,"polling_place_name":"Corio Central","division_name":"Corio","division_id":"208","polling_place_id":"3535"},"id":"aec_federal_election_first_preference_by_polling_place_2019.3535"},{"type":"Feature","geometry":{"type":"Point","coordinates":[144.356,-38.0792]},"properties":{"labor_percent":null,"state":"VIC","liberal_percent":13.17,"the_greens_vic_percent":9.73,"polling_place_name":"Corio West","division_name":"Corio","division_id":"208","polling_place_id":"3536"},"id":"aec_federal_election_first_preference_by_polling_place_2019.3536"},{"type":"Feature","geometry":{"type":"Point","coordinates":[144.374,-38.1529]},"properties":{"labor_percent":null,"state":"VIC","liberal_percent":33.84,"the_greens_vic_percent":15.89,"polling_place_name":"Geelong","division_name":"Corio","division_id":"208","polling_place_id":"3538"},"id":"aec_federal_election_first_preference_by_polling_place_2019.3538"},{"type":"Feature","geometry":{"type":"Point","coordinates":[144.34707,-38.140008]},"properties":{"labor_percent":null,"state":"VIC","liberal_percent":32.39,"the_greens_vic_percent":19.28,"polling_place_name":"Geelong West","division_name":"Corio","division_id":"208","polling_place_id":"3539"},"id":"aec_federal_election_first_preference_by_polling_place_2019.3539"},{"type":"Feature","geometry":{"type":"Point","coordinates":[144.41,-38.0221]},"properties":{"labor_percent":null,"state":"VIC","liberal_percent":36.5,"the_greens_vic_percent":10.22,"polling_place_name":"Lara","division_name":"Corio","division_id":"208","polling_place_id":"3543"},"id":"aec_federal_election_first_preference_by_polling_place_2019.3543"},{"type":"Feature","geometry":{"type":"Point","coordinates":[144.398,-38.0212]},"properties":{"labor_percent":null,"state":"VIC","liberal_percent":31.75,"the_greens_vic_percent":9.94,"polling_place_name":"Lara Central","division_name":"Corio","division_id":"208","polling_place_id":"3544"},"id":"aec_federal_election_first_preference_by_polling_place_2019.3544"},{"type":"Feature","geometry":{"type":"Point","coordinates":[144.395,-38.1651]},"properties":{"labor_percent":null,"state":"VIC","liberal_percent":21.91,"the_greens_vic_percent":12.55,"polling_place_name":"Newcomb","division_name":"Corio","division_id":"208","polling_place_id":"3546"},"id":"aec_federal_election_first_preference_by_polling_place_2019.3546"},{"type":"Feature","geometry":{"type":"Point","coordinates":[144.394,-38.1707]},"properties":{"labor_percent":null,"state":"VIC","liberal_percent":26.8,"the_greens_vic_percent":10.62,"polling_place_name":"Newcomb South","division_name":"Corio","division_id":"208","polling_place_id":"3547"},"id":"aec_federal_election_first_preference_by_polling_place_2019.3547"},{"type":"Feature","geometry":{"type":"Point","coordinates":[144.3375675,-38.0814554]},"properties":{"labor_percent":null,"state":"VIC","liberal_percent":25.67,"the_greens_vic_percent":9.37,"polling_place_name":"Norlane","division_name":"Corio","division_id":"208","polling_place_id":"3548"},"id":"aec_federal_election_first_preference_by_polling_place_2019.3548"},{"type":"Feature","geometry":{"type":"Point","coordinates":[144.364,-38.0903]},"properties":{"labor_percent":null,"state":"VIC","liberal_percent":14.79,"the_greens_vic_percent":10.8,"polling_place_name":"North Shore","division_name":"Corio","division_id":"208","polling_place_id":"3549"},"id":"aec_federal_election_first_preference_by_polling_place_2019.3549"},{"type":"Feature","geometry":{"type":"Point","coordinates":[144.337,-38.1456]},"properties":{"labor_percent":null,"state":"VIC","liberal_percent":41.69,"the_greens_vic_percent":18.41,"polling_place_name":"Newtown","division_name":"Corio","division_id":"208","polling_place_id":"3552"},"id":"aec_federal_election_first_preference_by_polling_place_2019.3552"},{"type":"Feature","geometry":{"type":"Point","coordinates":[144.3835367,-38.1740976]},"properties":{"labor_percent":null,"state":"VIC","liberal_percent":23.77,"the_greens_vic_percent":12.18,"polling_place_name":"Thomson","division_name":"Corio","division_id":"208","polling_place_id":"3554"},"id":"aec_federal_election_first_preference_by_polling_place_2019.3554"},{"type":"Feature","geometry":{"type":"Point","coordinates":[145.206,-37.8161]},"properties":{"labor_percent":null,"state":"VIC","liberal_percent":40.15,"the_greens_vic_percent":12.76,"polling_place_name":"Antonio Park","division_name":"Deakin","division_id":"209","polling_place_id":"3558"},"id":"aec_federal_election_first_preference_by_polling_place_2019.3558"},{"type":"Feature","geometry":{"type":"Point","coordinates":[145.152,-37.8209]},"properties":{"labor_percent":null,"state":"VIC","liberal_percent":38.86,"the_greens_vic_percent":18.72,"polling_place_name":"Blackburn","division_name":"Chisholm","division_id":"205","polling_place_id":"3559"},"id":"aec_federal_election_first_preference_by_polling_place_2019.3559"},{"type":"Feature","geometry":{"type":"Point","coordinates":[145.157,-37.8173]},"properties":{"labor_percent":null,"state":"VIC","liberal_percent":34.69,"the_greens_vic_percent":15.18,"polling_place_name":"Blackburn North","division_name":"Chisholm","division_id":"205","polling_place_id":"3560"},"id":"aec_federal_election_first_preference_by_polling_place_2019.3560"},{"type":"Feature","geometry":{"type":"Point","coordinates":[145.15,-37.8106]},"properties":{"labor_percent":null,"state":"VIC","liberal_percent":40.07,"the_greens_vic_percent":16.09,"polling_place_name":"Blackburn West","division_name":"Chisholm","division_id":"205","polling_place_id":"3561"},"id":"aec_federal_election_first_preference_by_polling_place_2019.3561"},{"type":"Feature","geometry":{"type":"Point","coordinates":[145.163,-37.8474]},"properties":{"labor_percent":null,"state":"VIC","liberal_percent":37.79,"the_greens_vic_percent":8.96,"polling_place_name":"Burwood Heights","division_name":"Chisholm","division_id":"205","polling_place_id":"3562"},"id":"aec_federal_election_first_preference_by_polling_place_2019.3562"},{"type":"Feature","geometry":{"type":"Point","coordinates":[145.188,-37.8657]},"properties":{"labor_percent":null,"state":"VIC","liberal_percent":46.58,"the_greens_vic_percent":10.18,"polling_place_name":"Camelot","division_name":"Chisholm","division_id":"205","polling_place_id":"3563"},"id":"aec_federal_election_first_preference_by_polling_place_2019.3563"},{"type":"Feature","geometry":{"type":"Point","coordinates":[145.182,-37.8524]},"properties":{"labor_percent":null,"state":"VIC","liberal_percent":52.73,"the_greens_vic_percent":6.05,"polling_place_name":"Charlesworth Park","division_name":"Deakin","division_id":"209","polling_place_id":"3564"},"id":"aec_federal_election_first_preference_by_polling_place_2019.3564"},{"type":"Feature","geometry":{"type":"Point","coordinates":[145.159,-37.8392]},"properties":{"labor_percent":null,"state":"VIC","liberal_percent":42.72,"the_greens_vic_percent":12.5,"polling_place_name":"Forest Hill","division_name":"Chisholm","division_id":"205","polling_place_id":"3565"},"id":"aec_federal_election_first_preference_by_polling_place_2019.3565"},{"type":"Feature","geometry":{"type":"Point","coordinates":[145.166,-37.8272]},"properties":{"labor_percent":null,"state":"VIC","liberal_percent":38.95,"the_greens_vic_percent":16.91,"polling_place_name":"Blackburn Lake","division_name":"Chisholm","division_id":"205","polling_place_id":"3566"},"id":"aec_federal_election_first_preference_by_polling_place_2019.3566"},{"type":"Feature","geometry":{"type":"Point","coordinates":[145.157,-37.8661]},"properties":{"labor_percent":null,"state":"VIC","liberal_percent":45.43,"the_greens_vic_percent":9.2,"polling_place_name":"Glendal","division_name":"Chisholm","division_id":"205","polling_place_id":"3567"},"id":"aec_federal_election_first_preference_by_polling_place_2019.3567"},{"type":"Feature","geometry":{"type":"Point","coordinates":[145.208,-37.8209]},"properties":{"labor_percent":null,"state":"VIC","liberal_percent":38.44,"the_greens_vic_percent":11.51,"polling_place_name":"Heatherdale","division_name":"Deakin","division_id":"209","polling_place_id":"3568"},"id":"aec_federal_election_first_preference_by_polling_place_2019.3568"},{"type":"Feature","geometry":{"type":"Point","coordinates":[145.1730793,-37.8661417]},"properties":{"labor_percent":null,"state":"VIC","liberal_percent":49.34,"the_greens_vic_percent":5.47,"polling_place_name":"Highvale","division_name":"Chisholm","division_id":"205","polling_place_id":"3569"},"id":"aec_federal_election_first_preference_by_polling_place_2019.3569"},{"type":"Feature","geometry":{"type":"Point","coordinates":[145.137,-37.8268]},"properties":{"labor_percent":null,"state":"VIC","liberal_percent":34.23,"the_greens_vic_percent":18.56,"polling_place_name":"Laburnum","division_name":"Chisholm","division_id":"205","polling_place_id":"3570"},"id":"aec_federal_election_first_preference_by_polling_place_2019.3570"},{"type":"Feature","geometry":{"type":"Point","coordinates":[145.197,-37.8155]},"properties":{"labor_percent":null,"state":"VIC","liberal_percent":41.5,"the_greens_vic_percent":12.83,"polling_place_name":"Mitcham","division_name":"Deakin","division_id":"209","polling_place_id":"3572"},"id":"aec_federal_election_first_preference_by_polling_place_2019.3572"},{"type":"Feature","geometry":{"type":"Point","coordinates":[145.142,-37.8571]},"properties":{"labor_percent":null,"state":"VIC","liberal_percent":42.91,"the_greens_vic_percent":8.72,"polling_place_name":"Manooka","division_name":"Chisholm","division_id":"205","polling_place_id":"3573"},"id":"aec_federal_election_first_preference_by_polling_place_2019.3573"},{"type":"Feature","geometry":{"type":"Point","coordinates":[145.19,-37.8071]},"properties":{"labor_percent":null,"state":"VIC","liberal_percent":40.78,"the_greens_vic_percent":10.72,"polling_place_name":"Mitcham North (Deakin)","division_name":"Deakin","division_id":"209","polling_place_id":"3575"},"id":"aec_federal_election_first_preference_by_polling_place_2019.3575"},{"type":"Feature","geometry":{"type":"Point","coordinates":[145.18,-37.8289]},"properties":{"labor_percent":null,"state":"VIC","liberal_percent":38.8,"the_greens_vic_percent":13.14,"polling_place_name":"Nunawading South","division_name":"Deakin","division_id":"209","polling_place_id":"3576"},"id":"aec_federal_election_first_preference_by_polling_place_2019.3576"},{"type":"Feature","geometry":{"type":"Point","coordinates":[145.177,-37.8438]},"properties":{"labor_percent":null,"state":"VIC","liberal_percent":42.55,"the_greens_vic_percent":7.65,"polling_place_name":"Parkmore","division_name":"Deakin","division_id":"209","polling_place_id":"3577"},"id":"aec_federal_election_first_preference_by_polling_place_2019.3577"},{"type":"Feature","geometry":{"type":"Point","coordinates":[145.167,-37.8079]},"properties":{"labor_percent":null,"state":"VIC","liberal_percent":38.76,"the_greens_vic_percent":13.25,"polling_place_name":"Springview","division_name":"Chisholm","division_id":"205","polling_place_id":"3578"},"id":"aec_federal_election_first_preference_by_polling_place_2019.3578"},{"type":"Feature","geometry":{"type":"Point","coordinates":[145.141,-37.8677]},"properties":{"labor_percent":null,"state":"VIC","liberal_percent":45.99,"the_greens_vic_percent":11.04,"polling_place_name":"Syndal North","division_name":"Chisholm","division_id":"205","polling_place_id":"3579"},"id":"aec_federal_election_first_preference_by_polling_place_2019.3579"},{"type":"Feature","geometry":{"type":"Point","coordinates":[145.1510076,-37.8596431]},"properties":{"labor_percent":null,"state":"VIC","liberal_percent":40.62,"the_greens_vic_percent":8.48,"polling_place_name":"Tally Ho","division_name":"Chisholm","division_id":"205","polling_place_id":"3580"},"id":"aec_federal_election_first_preference_by_polling_place_2019.3580"},{"type":"Feature","geometry":{"type":"Point","coordinates":[145.205,-37.8285]},"properties":{"labor_percent":null,"state":"VIC","liberal_percent":41.69,"the_greens_vic_percent":11.88,"polling_place_name":"Rangeview","division_name":"Deakin","division_id":"209","polling_place_id":"3581"},"id":"aec_federal_election_first_preference_by_polling_place_2019.3581"},{"type":"Feature","geometry":{"type":"Point","coordinates":[145.196,-37.8357]},"properties":{"labor_percent":null,"state":"VIC","liberal_percent":47.19,"the_greens_vic_percent":7.41,"polling_place_name":"Vermont North","division_name":"Deakin","division_id":"209","polling_place_id":"3583"},"id":"aec_federal_election_first_preference_by_polling_place_2019.3583"},{"type":"Feature","geometry":{"type":"Point","coordinates":[145.178,-37.859]},"properties":{"labor_percent":null,"state":"VIC","liberal_percent":52.01,"the_greens_vic_percent":7.48,"polling_place_name":"Weeden Heights","division_name":"Deakin","division_id":"209","polling_place_id":"3584"},"id":"aec_federal_election_first_preference_by_polling_place_2019.3584"},{"type":"Feature","geometry":{"type":"Point","coordinates":[145.162,-38.1175]},"properties":{"labor_percent":null,"state":"VIC","liberal_percent":21.53,"the_greens_vic_percent":8.46,"polling_place_name":"Aldercourt","division_name":"Dunkley","division_id":"210","polling_place_id":"3587"},"id":"aec_federal_election_first_preference_by_polling_place_2019.3587"},{"type":"Feature","geometry":{"type":"Point","coordinates":[145.108,-38.1727]},"properties":{"labor_percent":null,"state":"VIC","liberal_percent":47.61,"the_greens_vic_percent":10.72,"polling_place_name":"Baden Powell","division_name":"Dunkley","division_id":"210","polling_place_id":"3588"},"id":"aec_federal_election_first_preference_by_polling_place_2019.3588"},{"type":"Feature","geometry":{"type":"Point","coordinates":[145.159,-38.1459]},"properties":{"labor_percent":null,"state":"VIC","liberal_percent":28.89,"the_greens_vic_percent":10.72,"polling_place_name":"Ballam Park","division_name":"Dunkley","division_id":"210","polling_place_id":"3589"},"id":"aec_federal_election_first_preference_by_polling_place_2019.3589"},{"type":"Feature","geometry":{"type":"Point","coordinates":[145.148,-38.1743]},"properties":{"labor_percent":null,"state":"VIC","liberal_percent":45.47,"the_greens_vic_percent":6.89,"polling_place_name":"Mt Erin","division_name":"Dunkley","division_id":"210","polling_place_id":"3590"},"id":"aec_federal_election_first_preference_by_polling_place_2019.3590"},{"type":"Feature","geometry":{"type":"Point","coordinates":[145.1386942,-38.1614381]},"properties":{"labor_percent":null,"state":"VIC","liberal_percent":32.79,"the_greens_vic_percent":9.45,"polling_place_name":"Bruce Park","division_name":"Dunkley","division_id":"210","polling_place_id":"3592"},"id":"aec_federal_election_first_preference_by_polling_place_2019.3592"},{"type":"Feature","geometry":{"type":"Point","coordinates":[145.121,-38.1746]},"properties":{"labor_percent":null,"state":"VIC","liberal_percent":45.81,"the_greens_vic_percent":11.4,"polling_place_name":"Derinya","division_name":"Dunkley","division_id":"210","polling_place_id":"3593"},"id":"aec_federal_election_first_preference_by_polling_place_2019.3593"},{"type":"Feature","geometry":{"type":"Point","coordinates":[145.124,-38.1475]},"properties":{"labor_percent":null,"state":"VIC","liberal_percent":34.91,"the_greens_vic_percent":11.47,"polling_place_name":"Frankston","division_name":"Dunkley","division_id":"210","polling_place_id":"3594"},"id":"aec_federal_election_first_preference_by_polling_place_2019.3594"},{"type":"Feature","geometry":{"type":"Point","coordinates":[145.139,-38.1367]},"properties":{"labor_percent":null,"state":"VIC","liberal_percent":33.65,"the_greens_vic_percent":7.73,"polling_place_name":"Frankston East","division_name":"Dunkley","division_id":"210","polling_place_id":"3596"},"id":"aec_federal_election_first_preference_by_polling_place_2019.3596"},{"type":"Feature","geometry":{"type":"Point","coordinates":[145.147,-38.1618]},"properties":{"labor_percent":null,"state":"VIC","liberal_percent":32.05,"the_greens_vic_percent":9.72,"polling_place_name":"Frankston Heights","division_name":"Dunkley","division_id":"210","polling_place_id":"3598"},"id":"aec_federal_election_first_preference_by_polling_place_2019.3598"},{"type":"Feature","geometry":{"type":"Point","coordinates":[145.1274848,-38.1438725]},"properties":{"labor_percent":null,"state":"VIC","liberal_percent":26.06,"the_greens_vic_percent":17.43,"polling_place_name":"Frankston Rail","division_name":"Dunkley","division_id":"210","polling_place_id":"3599"},"id":"aec_federal_election_first_preference_by_polling_place_2019.3599"},{"type":"Feature","geometry":{"type":"Point","coordinates":[145.129,-38.161]},"properties":{"labor_percent":null,"state":"VIC","liberal_percent":31.85,"the_greens_vic_percent":15.6,"polling_place_name":"Frankston South","division_name":"Dunkley","division_id":"210","polling_place_id":"3600"},"id":"aec_federal_election_first_preference_by_polling_place_2019.3600"},{"type":"Feature","geometry":{"type":"Point","coordinates":[145.133,-38.1249]},"properties":{"labor_percent":null,"state":"VIC","liberal_percent":27.64,"the_greens_vic_percent":12.56,"polling_place_name":"Kananook","division_name":"Dunkley","division_id":"210","polling_place_id":"3601"},"id":"aec_federal_election_first_preference_by_polling_place_2019.3601"},{"type":"Feature","geometry":{"type":"Point","coordinates":[145.145,-38.1459]},"properties":{"labor_percent":null,"state":"VIC","liberal_percent":28.85,"the_greens_vic_percent":9.62,"polling_place_name":"Karingal","division_name":"Dunkley","division_id":"210","polling_place_id":"3602"},"id":"aec_federal_election_first_preference_by_polling_place_2019.3602"},{"type":"Feature","geometry":{"type":"Point","coordinates":[145.166,-38.1415]},"properties":{"labor_percent":null,"state":"VIC","liberal_percent":30.95,"the_greens_vic_percent":8.17,"polling_place_name":"Karingal Heights","division_name":"Dunkley","division_id":"210","polling_place_id":"3603"},"id":"aec_federal_election_first_preference_by_polling_place_2019.3603"},{"type":"Feature","geometry":{"type":"Point","coordinates":[145.076,-38.1874]},"properties":{"labor_percent":null,"state":"VIC","liberal_percent":50.54,"the_greens_vic_percent":12.07,"polling_place_name":"Kunyung","division_name":"Dunkley","division_id":"210","polling_place_id":"3604"},"id":"aec_federal_election_first_preference_by_polling_place_2019.3604"},{"type":"Feature","geometry":{"type":"Point","coordinates":[145.038,-38.2217]},"properties":{"labor_percent":null,"state":"VIC","liberal_percent":47.07,"the_greens_vic_percent":7.32,"polling_place_name":"Mornington","division_name":"Flinders","division_id":"211","polling_place_id":"3605"},"id":"aec_federal_election_first_preference_by_polling_place_2019.3605"},{"type":"Feature","geometry":{"type":"Point","coordinates":[145.0396156,-38.2319271]},"properties":{"labor_percent":null,"state":"VIC","liberal_percent":40.72,"the_greens_vic_percent":8.73,"polling_place_name":"Mornington South","division_name":"Flinders","division_id":"211","polling_place_id":"3606"},"id":"aec_federal_election_first_preference_by_polling_place_2019.3606"},{"type":"Feature","geometry":{"type":"Point","coordinates":[145.093,-38.1898]},"properties":{"labor_percent":null,"state":"VIC","liberal_percent":56.61,"the_greens_vic_percent":7.15,"polling_place_name":"Mt Eliza","division_name":"Dunkley","division_id":"210","polling_place_id":"3607"},"id":"aec_federal_election_first_preference_by_polling_place_2019.3607"},{"type":"Feature","geometry":{"type":"Point","coordinates":[145.101,-38.1884]},"properties":{"labor_percent":null,"state":"VIC","liberal_percent":47.02,"the_greens_vic_percent":9.74,"polling_place_name":"Mt Eliza North","division_name":"Dunkley","division_id":"210","polling_place_id":"3608"},"id":"aec_federal_election_first_preference_by_polling_place_2019.3608"},{"type":"Feature","geometry":{"type":"Point","coordinates":[145.057877,-38.225822]},"properties":{"labor_percent":null,"state":"VIC","liberal_percent":33.65,"the_greens_vic_percent":9.47,"polling_place_name":"Tanti Park","division_name":"Flinders","division_id":"211","polling_place_id":"3609"},"id":"aec_federal_election_first_preference_by_polling_place_2019.3609"},{"type":"Feature","geometry":{"type":"Point","coordinates":[145.1232147,-38.3757117]},"properties":{"labor_percent":null,"state":"VIC","liberal_percent":38.91,"the_greens_vic_percent":9.35,"polling_place_name":"Balnarring","division_name":"Flinders","division_id":"211","polling_place_id":"3613"},"id":"aec_federal_election_first_preference_by_polling_place_2019.3613"},{"type":"Feature","geometry":{"type":"Point","coordinates":[145.465,-38.4843]},"properties":{"labor_percent":null,"state":"VIC","liberal_percent":41.59,"the_greens_vic_percent":6.73,"polling_place_name":"Bass","division_name":"Monash","division_id":"323","polling_place_id":"3614"},"id":"aec_federal_election_first_preference_by_polling_place_2019.3614"},{"type":"Feature","geometry":{"type":"Point","coordinates":[145.181,-38.1997]},"properties":{"labor_percent":null,"state":"VIC","liberal_percent":44.88,"the_greens_vic_percent":5.62,"polling_place_name":"Baxter (Flinders)","division_name":"Flinders","division_id":"211","polling_place_id":"3615"},"id":"aec_federal_election_first_preference_by_polling_place_2019.3615"},{"type":"Feature","geometry":{"type":"Point","coordinates":[145.566,-38.1766]},"properties":{"labor_percent":null,"state":"VIC","liberal_percent":54.64,"the_greens_vic_percent":4.38,"polling_place_name":"Bayles","division_name":"Monash","division_id":"323","polling_place_id":"3616"},"id":"aec_federal_election_first_preference_by_polling_place_2019.3616"},{"type":"Feature","geometry":{"type":"Point","coordinates":[145.171,-38.3391]},"properties":{"labor_percent":null,"state":"VIC","liberal_percent":31.91,"the_greens_vic_percent":9.27,"polling_place_name":"Bittern","division_name":"Flinders","division_id":"211","polling_place_id":"3617"},"id":"aec_federal_election_first_preference_by_polling_place_2019.3617"},{"type":"Feature","geometry":{"type":"Point","coordinates":[144.784,-38.3638]},"properties":{"labor_percent":null,"state":"VIC","liberal_percent":50.0,"the_greens_vic_percent":9.57,"polling_place_name":"Blairgowrie","division_name":"Flinders","division_id":"211","polling_place_id":"3618"},"id":"aec_federal_election_first_preference_by_polling_place_2019.3618"},{"type":"Feature","geometry":{"type":"Point","coordinates":[144.887,-38.4123]},"properties":{"labor_percent":null,"state":"VIC","liberal_percent":40.48,"the_greens_vic_percent":12.01,"polling_place_name":"Boneo","division_name":"Flinders","division_id":"211","polling_place_id":"3619"},"id":"aec_federal_election_first_preference_by_polling_place_2019.3619"},{"type":"Feature","geometry":{"type":"Point","coordinates":[145.43,-38.4143]},"properties":{"labor_percent":null,"state":"VIC","liberal_percent":38.86,"the_greens_vic_percent":7.61,"polling_place_name":"Corinella","division_name":"Monash","division_id":"323","polling_place_id":"3622"},"id":"aec_federal_election_first_preference_by_polling_place_2019.3622"},{"type":"Feature","geometry":{"type":"Point","coordinates":[145.2422378,-38.4564867]},"properties":{"labor_percent":null,"state":"VIC","liberal_percent":35.0,"the_greens_vic_percent":13.84,"polling_place_name":"Cowes","division_name":"Monash","division_id":"323","polling_place_id":"3623"},"id":"aec_federal_election_first_preference_by_polling_place_2019.3623"},{"type":"Feature","geometry":{"type":"Point","coordinates":[145.245,-38.1485]},"properties":{"labor_percent":null,"state":"VIC","liberal_percent":51.52,"the_greens_vic_percent":7.44,"polling_place_name":"Cranbourne South","division_name":"Holt","division_id":"216","polling_place_id":"3624"},"id":"aec_federal_election_first_preference_by_polling_place_2019.3624"},{"type":"Feature","geometry":{"type":"Point","coordinates":[145.201,-38.3611]},"properties":{"labor_percent":null,"state":"VIC","liberal_percent":36.28,"the_greens_vic_percent":6.47,"polling_place_name":"Crib Point","division_name":"Flinders","division_id":"211","polling_place_id":"3625"},"id":"aec_federal_election_first_preference_by_polling_place_2019.3625"},{"type":"Feature","geometry":{"type":"Point","coordinates":[145.302,-38.1624]},"properties":{"labor_percent":null,"state":"VIC","liberal_percent":55.81,"the_greens_vic_percent":7.63,"polling_place_name":"Devon Meadows","division_name":"Holt","division_id":"216","polling_place_id":"3628"},"id":"aec_federal_election_first_preference_by_polling_place_2019.3628"},{"type":"Feature","geometry":{"type":"Point","coordinates":[144.96,-38.3409]},"properties":{"labor_percent":null,"state":"VIC","liberal_percent":39.47,"the_greens_vic_percent":8.45,"polling_place_name":"Dromana","division_name":"Flinders","division_id":"211","polling_place_id":"3629"},"id":"aec_federal_election_first_preference_by_polling_place_2019.3629"},{"type":"Feature","geometry":{"type":"Point","coordinates":[145.016,-38.4735]},"properties":{"labor_percent":null,"state":"VIC","liberal_percent":46.21,"the_greens_vic_percent":5.42,"polling_place_name":"Flinders","division_name":"Flinders","division_id":"211","polling_place_id":"3631"},"id":"aec_federal_election_first_preference_by_polling_place_2019.3631"},{"type":"Feature","geometry":{"type":"Point","coordinates":[145.532,-38.4061]},"properties":{"labor_percent":null,"state":"VIC","liberal_percent":39.51,"the_greens_vic_percent":7.58,"polling_place_name":"Grantville","division_name":"Monash","division_id":"323","polling_place_id":"3634"},"id":"aec_federal_election_first_preference_by_polling_place_2019.3634"},{"type":"Feature","geometry":{"type":"Point","coordinates":[145.194,-38.3079]},"properties":{"labor_percent":null,"state":"VIC","liberal_percent":36.58,"the_greens_vic_percent":7.52,"polling_place_name":"Hastings","division_name":"Flinders","division_id":"211","polling_place_id":"3635"},"id":"aec_federal_election_first_preference_by_polling_place_2019.3635"},{"type":"Feature","geometry":{"type":"Point","coordinates":[145.488,-38.2004]},"properties":{"labor_percent":null,"state":"VIC","liberal_percent":42.78,"the_greens_vic_percent":4.15,"polling_place_name":"Kooweerup","division_name":"Monash","division_id":"323","polling_place_id":"3637"},"id":"aec_federal_election_first_preference_by_polling_place_2019.3637"},{"type":"Feature","geometry":{"type":"Point","coordinates":[145.57,-38.2632]},"properties":{"labor_percent":null,"state":"VIC","liberal_percent":45.49,"the_greens_vic_percent":3.19,"polling_place_name":"Lang Lang","division_name":"Monash","division_id":"323","polling_place_id":"3639"},"id":"aec_federal_election_first_preference_by_polling_place_2019.3639"},{"type":"Feature","geometry":{"type":"Point","coordinates":[145.1901412,-38.1590759]},"properties":{"labor_percent":null,"state":"VIC","liberal_percent":40.31,"the_greens_vic_percent":7.3,"polling_place_name":"Langwarrin","division_name":"Dunkley","division_id":"210","polling_place_id":"3640"},"id":"aec_federal_election_first_preference_by_polling_place_2019.3640"},{"type":"Feature","geometry":{"type":"Point","coordinates":[145.704935,-38.368983]},"properties":{"labor_percent":null,"state":"VIC","liberal_percent":53.13,"the_greens_vic_percent":10.23,"polling_place_name":"Loch","division_name":"Monash","division_id":"323","polling_place_id":"3641"},"id":"aec_federal_election_first_preference_by_polling_place_2019.3641"},{"type":"Feature","geometry":{"type":"Point","coordinates":[145.106,-38.2483]},"properties":{"labor_percent":null,"state":"VIC","liberal_percent":55.79,"the_greens_vic_percent":6.53,"polling_place_name":"Moorooduc","division_name":"Flinders","division_id":"211","polling_place_id":"3645"},"id":"aec_federal_election_first_preference_by_polling_place_2019.3645"},{"type":"Feature","geometry":{"type":"Point","coordinates":[145.013,-38.2754]},"properties":{"labor_percent":null,"state":"VIC","liberal_percent":42.91,"the_greens_vic_percent":11.12,"polling_place_name":"Mt Martha","division_name":"Flinders","division_id":"211","polling_place_id":"3646"},"id":"aec_federal_election_first_preference_by_polling_place_2019.3646"},{"type":"Feature","geometry":{"type":"Point","coordinates":[145.675,-38.3366]},"properties":{"labor_percent":null,"state":"VIC","liberal_percent":45.62,"the_greens_vic_percent":4.3,"polling_place_name":"Nyora","division_name":"Monash","division_id":"323","polling_place_id":"3648"},"id":"aec_federal_election_first_preference_by_polling_place_2019.3648"},{"type":"Feature","geometry":{"type":"Point","coordinates":[145.231,-38.2032]},"properties":{"labor_percent":null,"state":"VIC","liberal_percent":51.76,"the_greens_vic_percent":7.32,"polling_place_name":"Pearcedale","division_name":"Holt","division_id":"216","polling_place_id":"3649"},"id":"aec_federal_election_first_preference_by_polling_place_2019.3649"},{"type":"Feature","geometry":{"type":"Point","coordinates":[145.7682753,-38.3423967]},"properties":{"labor_percent":null,"state":"VIC","liberal_percent":50.0,"the_greens_vic_percent":5.25,"polling_place_name":"Poowong","division_name":"Monash","division_id":"323","polling_place_id":"3650"},"id":"aec_federal_election_first_preference_by_polling_place_2019.3650"},{"type":"Feature","geometry":{"type":"Point","coordinates":[144.704,-38.3186]},"properties":{"labor_percent":null,"state":"VIC","liberal_percent":61.77,"the_greens_vic_percent":7.17,"polling_place_name":"Portsea","division_name":"Flinders","division_id":"211","polling_place_id":"3652"},"id":"aec_federal_election_first_preference_by_polling_place_2019.3652"},{"type":"Feature","geometry":{"type":"Point","coordinates":[144.996,-38.367]},"properties":{"labor_percent":null,"state":"VIC","liberal_percent":37.12,"the_greens_vic_percent":12.49,"polling_place_name":"Red Hill","division_name":"Flinders","division_id":"211","polling_place_id":"3653"},"id":"aec_federal_election_first_preference_by_polling_place_2019.3653"},{"type":"Feature","geometry":{"type":"Point","coordinates":[145.306,-38.463]},"properties":{"labor_percent":null,"state":"VIC","liberal_percent":48.43,"the_greens_vic_percent":13.39,"polling_place_name":"Rhyll","division_name":"Monash","division_id":"323","polling_place_id":"3654"},"id":"aec_federal_election_first_preference_by_polling_place_2019.3654"},{"type":"Feature","geometry":{"type":"Point","coordinates":[144.9005737,-38.3569916]},"properties":{"labor_percent":null,"state":"VIC","liberal_percent":37.72,"the_greens_vic_percent":8.93,"polling_place_name":"Rosebud East","division_name":"Flinders","division_id":"211","polling_place_id":"3656"},"id":"aec_federal_election_first_preference_by_polling_place_2019.3656"},{"type":"Feature","geometry":{"type":"Point","coordinates":[144.89,-38.3677]},"properties":{"labor_percent":null,"state":"VIC","liberal_percent":32.88,"the_greens_vic_percent":9.14,"polling_place_name":"Rosebud West","division_name":"Flinders","division_id":"211","polling_place_id":"3657"},"id":"aec_federal_election_first_preference_by_polling_place_2019.3657"},{"type":"Feature","geometry":{"type":"Point","coordinates":[144.822,-38.3716]},"properties":{"labor_percent":null,"state":"VIC","liberal_percent":38.19,"the_greens_vic_percent":10.54,"polling_place_name":"Rye","division_name":"Flinders","division_id":"211","polling_place_id":"3658"},"id":"aec_federal_election_first_preference_by_polling_place_2019.3658"},{"type":"Feature","geometry":{"type":"Point","coordinates":[145.045,-38.4275]},"properties":{"labor_percent":null,"state":"VIC","liberal_percent":33.55,"the_greens_vic_percent":7.57,"polling_place_name":"Shoreham","division_name":"Flinders","division_id":"211","polling_place_id":"3661"},"id":"aec_federal_election_first_preference_by_polling_place_2019.3661"},{"type":"Feature","geometry":{"type":"Point","coordinates":[145.165,-38.3922]},"properties":{"labor_percent":null,"state":"VIC","liberal_percent":34.79,"the_greens_vic_percent":9.7,"polling_place_name":"Somers","division_name":"Flinders","division_id":"211","polling_place_id":"3662"},"id":"aec_federal_election_first_preference_by_polling_place_2019.3662"},{"type":"Feature","geometry":{"type":"Point","coordinates":[145.169,-38.2297]},"properties":{"labor_percent":null,"state":"VIC","liberal_percent":44.82,"the_greens_vic_percent":6.44,"polling_place_name":"Somerville West","division_name":"Flinders","division_id":"211","polling_place_id":"3663"},